[
    {
        "ID": 5635,
        "NOMBRE": "ATM: 702 Av. 6 de Agosto LP",
        "TIPO": "T",
        "SUB_TIPO": "T",
        "LATITUD": "-16.5056026752",
        "LONGITUD": "-68.12985515",
        "HORARIO": "S",
        "TELEFONO": "800103999",
        "DIRECCION": " Av. 6 de Agosto N° 227, esq., Calle J. J. Perez, Zona Sopocachi.",
        "DESCRIPCION": "Cajero Automático"
    },
    {
        "ID": 6175,
        "NOMBRE": "ATM: 734 6 de Agosto",
        "TIPO": "T",
        "SUB_TIPO": "E",
        "LATITUD": "-16.513007969421196",
        "LONGITUD": "-68.12241655302833",
        "HORARIO": "S",
        "TELEFONO": "80010399",
        "DIRECCION": " Av. 6 de Agosto entre Calles Campos y Cordero",
        "DESCRIPCION": "Cajero Automático"
    },
    {
        "ID": 164,
        "NOMBRE": "ATM: 186 IC Norte América",
        "TIPO": "T",
        "SUB_TIPO": "T",
        "LATITUD": "-17.3726361111",
        "LONGITUD": "-66.1511472222",
        "HORARIO": "S",
        "TELEFONO": "800-103999",
        "DIRECCION": " Av. América N° 817, Supermercado IC Norte América.",
        "DESCRIPCION": "Cajero Automático"
    },
    {
        "ID": 3892,
        "NOMBRE": "ATM: 440 Makro Parque",
        "TIPO": "T",
        "SUB_TIPO": "T",
        "LATITUD": "-17.765000552147654",
        "LONGITUD": "-63.147784213926290",
        "HORARIO": "S",
        "TELEFONO": "800103999",
        "DIRECCION": " Av. Cuarto Anillo, final Av. Paragua, Parque Industrial.",
        "DESCRIPCION": "Cajero Automático"
    },
    {
        "ID": 5590,
        "NOMBRE": "ATM: 332 Av. Dorbigni y Juan Pablo II",
        "TIPO": "T",
        "SUB_TIPO": "E",
        "LATITUD": "-17.385891768452314",
        "LONGITUD": "-66.199077164803740",
        "HORARIO": "S",
        "TELEFONO": "800103999",
        "DIRECCION": " Av. Juan Pablo II, esq. D'orbigni N° 28, Zona Seminario.",
        "DESCRIPCION": "Cajero Automático"
    },
    {
        "ID": 6179,
        "NOMBRE": "ATM: 727 Teleférico Estación Mirador",
        "TIPO": "T",
        "SUB_TIPO": "E",
        "LATITUD": "-16.517995288189134",
        "LONGITUD": "-68.15045475003191",
        "HORARIO": "N",
        "TELEFONO": "800103999",
        "DIRECCION": " Av. Nuñez del Prado, Estación Mirador, Teleférico Amarillo, El Alto.",
        "DESCRIPCION": "Cajero Automático"
    },
    {
        "ID": 2064,
        "NOMBRE": "ATM: 417 Hipermaxi Equipetrol",
        "TIPO": "T",
        "SUB_TIPO": "T",
        "LATITUD": "-17.757596233148220",
        "LONGITUD": "-63.200538151335955",
        "HORARIO": "S",
        "TELEFONO": "800-103999",
        "DIRECCION": " Av. San Martin, Esq. 4to. Anillo.",
        "DESCRIPCION": "Cajero Automático"
    },
    {
        "ID": 5627,
        "NOMBRE": "ATM: 711 Av. Satélite",
        "TIPO": "T",
        "SUB_TIPO": "T",
        "LATITUD": "-16.523175714427363",
        "LONGITUD": "-68.152682938280120",
        "HORARIO": "S",
        "TELEFONO": "800103999",
        "DIRECCION": " Av. Satélite, Plan 50 N° 650, Zona Ciudad Satélite, El Alto.",
        "DESCRIPCION": "Cajero Automático"
    },
    {
        "ID": 6171,
        "NOMBRE": "ATM: 732 Uruguay",
        "TIPO": "T",
        "SUB_TIPO": "E",
        "LATITUD": "-16.49095096662471",
        "LONGITUD": "-68.13912531429725",
        "HORARIO": "S",
        "TELEFONO": "800103999",
        "DIRECCION": " Av. Uruguay esq. Av. Ismael Montes.",
        "DESCRIPCION": "Cajero Automático"
    },
    {
        "ID": 5338,
        "NOMBRE": "ATM: 475 Supermercado TIA",
        "TIPO": "T",
        "SUB_TIPO": "E",
        "LATITUD": "-17.781410300000000",
        "LONGITUD": "-63.153452700000000",
        "HORARIO": "S",
        "TELEFONO": "800103999",
        "DIRECCION": " Avenida Virgen de Cotoca N° 3872,  entre 3er. Anillo Interno y 3er. Anillo Externo.",
        "DESCRIPCION": "Cajero Automático"
    },
    {
        "ID": 5616,
        "NOMBRE": "ATM: 704 Plaza Villarroel",
        "TIPO": "T",
        "SUB_TIPO": "T",
        "LATITUD": "-16.485164743664427",
        "LONGITUD": "-68.122305836707800",
        "HORARIO": "S",
        "TELEFONO": "800103999",
        "DIRECCION": " Calle General Monje N° 100, entre Av. EEUU y Av. Busch, frente a la Plaza Villarroel, Zona Miraflores.",
        "DESCRIPCION": "Cajero Automático"
    },
    {
        "ID": 2528,
        "NOMBRE": "ATM: 425 Ag. Ambassador I - Depositario ",
        "TIPO": "T",
        "SUB_TIPO": "E",
        "LATITUD": "-17.768290596816694",
        "LONGITUD": "-63.193716692478915",
        "HORARIO": "S",
        "TELEFONO": "800-103999.",
        "DIRECCION": " Instalaciones de la Agencia Ambassador ubicada en el Centro Empresarial Ambassador, Barrio Equipetrol, sobre Av. San Martin.",
        "DESCRIPCION": "Cajero Automático"
    },
    {
        "ID": 3279,
        "NOMBRE": "ATM: 433 Supermercado PRONTO",
        "TIPO": "T",
        "SUB_TIPO": "E",
        "LATITUD": "-17.77462044261823",
        "LONGITUD": "-63.16552811642316",
        "HORARIO": "S",
        "TELEFONO": "800103999",
        "DIRECCION": " Instalaciones del Supermercado Pronto, Av. Santa Cruz, 2do Anillo, esquina Av. Paragua.",
        "DESCRIPCION": "Cajero Automático"
    },
    {
        "ID": 10,
        "NOMBRE": "AGENCIA MUTUALISTA",
        "TIPO": "A",
        "SUB_TIPO": "A",
        "LATITUD": "-17.763036342056274",
        "LONGITUD": "-63.163291353162656",
        "HORARIO": "N",
        "TELEFONO": "(591-3) 317 3000",
        "DIRECCION": "3er Anillo Int. N° 1050, entre Calles Sandía y Buena Vista.",
        "DESCRIPCION": "Santa Cruz"
    },
    {
        "ID": 9516,
        "NOMBRE": "Kiosko de Autoservicio  Ag. Mutualista II",
        "TIPO": "T",
        "SUB_TIPO": "K",
        "LATITUD": "-17.763024104875544",
        "LONGITUD": "-63.16322976897756",
        "HORARIO": "N",
        "TELEFONO": "3 173000",
        "DIRECCION": "3er Anillo Interno N° 1050, entre calles Sandía y Buena Vista",
        "DESCRIPCION": "Kiosco de Autoservicio"
    },
    {
        "ID": 9526,
        "NOMBRE": "Kiosko de Autoservicio  Ag. Mutualista",
        "TIPO": "T",
        "SUB_TIPO": "K",
        "LATITUD": "-17.763024104875544",
        "LONGITUD": "-63.16322976897756",
        "HORARIO": "N",
        "TELEFONO": "3 173000",
        "DIRECCION": "3er Anillo Interno N° 1050, entre calles Sandía y Buena Vista",
        "DESCRIPCION": "Kiosco de Autoservicio"
    },
    {
        "ID": 7857,
        "NOMBRE": "ATM: 480 3 Pasos al Frente 4to Anillo",
        "TIPO": "T",
        "SUB_TIPO": "E",
        "LATITUD": "-17.799138193981140",
        "LONGITUD": "-63.149703835887180",
        "HORARIO": "S",
        "TELEFONO": "800103999",
        "DIRECCION": "ATM 3 Pasos al Frente 4to Anillo",
        "DESCRIPCION": "Cajero Automático"
    },
    {
        "ID": 36,
        "NOMBRE": "ATM: 144 Agencia Mutualista",
        "TIPO": "T",
        "SUB_TIPO": "T",
        "LATITUD": "-17.762947989059178",
        "LONGITUD": "-63.163305166996835",
        "HORARIO": "S",
        "TELEFONO": "800-103999",
        "DIRECCION": "Agencia Mutualista-Av. Dr. Lucas Saucedo N? 1050, 3er Anillo Interno",
        "DESCRIPCION": "Cajero Automático"
    },
    {
        "ID": 6399,
        "NOMBRE": "ATM: 355 Jordan",
        "TIPO": "T",
        "SUB_TIPO": "I",
        "LATITUD": "-17.394428700000000",
        "LONGITUD": "-66.150497800000000",
        "HORARIO": "S",
        "TELEFONO": "800103999",
        "DIRECCION": "Aldeas Infantiles SOS, Calle Jordan y 16 de Julio.",
        "DESCRIPCION": "Cajero Automático"
    },
    {
        "ID": 7686,
        "NOMBRE": "ATM: 491 Fontana Riviera",
        "TIPO": "T",
        "SUB_TIPO": "E",
        "LATITUD": "-17.699868692088970",
        "LONGITUD": "-63.132864231340590",
        "HORARIO": "S",
        "TELEFONO": "800103999",
        "DIRECCION": "Almacenes TONCHAN, Av. Internacional, Ingreso a La Fontana Riviera y Valle del Cártago.",
        "DESCRIPCION": "Cajero Automático"
    },
    {
        "ID": 107,
        "NOMBRE": "ATM: 170 Estadio Hernando Siles",
        "TIPO": "T",
        "SUB_TIPO": "T",
        "LATITUD": "-16.500070200000000",
        "LONGITUD": "-68.124057900000010",
        "HORARIO": "S",
        "TELEFONO": "800-103999",
        "DIRECCION": "Atm Estadio Hernando Siles",
        "DESCRIPCION": "Cajero Automático"
    },
    {
        "ID": 8533,
        "NOMBRE": "ATM: 554 San Ignacio de Velasco II",
        "TIPO": "T",
        "SUB_TIPO": "T",
        "LATITUD": "-16.375287896469644",
        "LONGITUD": "-60.959329100197",
        "HORARIO": "S",
        "TELEFONO": "800103999",
        "DIRECCION": "Atm San Ignacio de Velasco II",
        "DESCRIPCION": "Cajero Automático"
    },
    {
        "ID": 8548,
        "NOMBRE": "ATM: 551 Eduardo S.A.",
        "TIPO": "T",
        "SUB_TIPO": "T",
        "LATITUD": "-17.566825917036777",
        "LONGITUD": "-63.15867447261657",
        "HORARIO": "S",
        "TELEFONO": "800103999",
        "DIRECCION": "Autovía al Norte Km. 23, Warnes, Empresa Eduardo S.A.",
        "DESCRIPCION": "Cajero Automático"
    },
    {
        "ID": 6135,
        "NOMBRE": "ATM: 223 Club de Tenis Sucre",
        "TIPO": "T",
        "SUB_TIPO": "T",
        "LATITUD": "-19.040013446100488",
        "LONGITUD": "-65.2648732287376",
        "HORARIO": "S",
        "TELEFONO": "800103999",
        "DIRECCION": "Av.  Venezuela N° 1, Zona Parque Simón Bolívar.",
        "DESCRIPCION": "Cajero Automático"
    },
    {
        "ID": 106,
        "NOMBRE": "ATM: 171 El Prado La Paz",
        "TIPO": "T",
        "SUB_TIPO": "T",
        "LATITUD": "-16.503635431333150",
        "LONGITUD": "-68.131050023205470",
        "HORARIO": "S",
        "TELEFONO": "800-103999",
        "DIRECCION": "Av. 16 de Julio N° 1805 entre Calles Tihuanacu y Batallón Colorados, Zona El Prado",
        "DESCRIPCION": "Cajero Automático"
    },
    {
        "ID": 8628,
        "NOMBRE": "ATM: 570 2 de Agosto",
        "TIPO": "T",
        "SUB_TIPO": "T",
        "LATITUD": "-17.743237500000000",
        "LONGITUD": "-63.149265600000000",
        "HORARIO": "S",
        "TELEFONO": "800103999",
        "DIRECCION": "Av. 2 de Agosto, Barrio Nueva Esperanza, entre 5to. y 6to. Anillo.",
        "DESCRIPCION": "Cajero Automático"
    },
    {
        "ID": 8572,
        "NOMBRE": "ATM: 559 Warnes Santa Rosita",
        "TIPO": "T",
        "SUB_TIPO": "T",
        "LATITUD": "-17.515305100000000",
        "LONGITUD": "-63.165663300000000",
        "HORARIO": "S",
        "TELEFONO": "800103999",
        "DIRECCION": "Av. 25 de Mayo, Esq. Av. Santa Rosita, Warnes",
        "DESCRIPCION": "Cajero Automático"
    },
    {
        "ID": 8882,
        "NOMBRE": "ATM: 200 Av. 27 de Mayo",
        "TIPO": "T",
        "SUB_TIPO": "T",
        "LATITUD": "-11.025410369192015",
        "LONGITUD": "-68.7655880699753",
        "HORARIO": "S",
        "TELEFONO": "800103999",
        "DIRECCION": "Av. 27 de Mayo, entre Av. Pando y Ruta Nacional 13, Cobija",
        "DESCRIPCION": "Cajero Automático"
    },
    {
        "ID": 8634,
        "NOMBRE": "ATM: 567 3 Pasos al Frente 6to. Anillo",
        "TIPO": "T",
        "SUB_TIPO": "T",
        "LATITUD": "-17.801336000000000",
        "LONGITUD": "-63.135081700000000",
        "HORARIO": "S",
        "TELEFONO": "800103999",
        "DIRECCION": "Av. 3 Pasos al Frente, rotonda 6to. Anillo. ",
        "DESCRIPCION": "Cajero Automático"
    },
    {
        "ID": 8697,
        "NOMBRE": "ATM: 246 Hipermaxi Radial 26",
        "TIPO": "T",
        "SUB_TIPO": "T",
        "LATITUD": "-17.776919600000000",
        "LONGITUD": "-63.173164800000000",
        "HORARIO": "S",
        "TELEFONO": "800103999",
        "DIRECCION": "Av. 4to Anillo, Esq. Canal Pedro Vélez, Zona Radial 26, Supermercado Hipermaxi ",
        "DESCRIPCION": "Cajero Automático"
    },
    {
        "ID": 8717,
        "NOMBRE": "ATM: 278 Le Mans Norte",
        "TIPO": "T",
        "SUB_TIPO": "T",
        "LATITUD": "-17.750353500000000",
        "LONGITUD": "-63.176266100000010",
        "HORARIO": "S",
        "TELEFONO": "800103999",
        "DIRECCION": "Av. 4to Anillo, casi esquina Av. Cristo Redentor, Zona Norte,  LE MANS LTDA",
        "DESCRIPCION": "Cajero Automático"
    },
    {
        "ID": 9469,
        "NOMBRE": "Kiosko de Autoservicio Ag. El Alto",
        "TIPO": "T",
        "SUB_TIPO": "K",
        "LATITUD": "-16.5091140309774",
        "LONGITUD": "-68.1642494747688",
        "HORARIO": "N",
        "TELEFONO": "3173000",
        "DIRECCION": "Av. 6 de Marzo N° 701-A entre Calles 5 y 6",
        "DESCRIPCION": "Kiosko de Autoservicio"
    },
    {
        "ID": 8506,
        "NOMBRE": "ATM: 737 Ag. El Alto Sala II",
        "TIPO": "T",
        "SUB_TIPO": "E",
        "LATITUD": "-16.510172675384332",
        "LONGITUD": "-68.16448032558931",
        "HORARIO": "S",
        "TELEFONO": "800103999",
        "DIRECCION": "Av. 6 de Marzo N° 701-A entre Calles 5 y 6, Zona 12 de Octubre, El Alto.",
        "DESCRIPCION": "Cajero Automático"
    },
    {
        "ID": 8504,
        "NOMBRE": "ATM: 736 Ag. El Alto Sala I",
        "TIPO": "T",
        "SUB_TIPO": "E",
        "LATITUD": "-16.510147059895466",
        "LONGITUD": "-68.16445910117291",
        "HORARIO": "S",
        "TELEFONO": "800103999",
        "DIRECCION": "Av. 6 de Marzo N° 701-A entre Calles 5 y 6, Zona 12 de Octubre, El Alto.",
        "DESCRIPCION": "Cajero Automático"
    },
    {
        "ID": 100,
        "NOMBRE": "AGENCIA EL ALTO",
        "TIPO": "A",
        "SUB_TIPO": "A",
        "LATITUD": "-16.510060794046215",
        "LONGITUD": "-68.164549627786160",
        "HORARIO": "N",
        "TELEFONO": "(591-2) 217-3000",
        "DIRECCION": "Av. 6 de Marzo N°701-A, entre Calle 5 y 6, Zona 12 de Octubre.",
        "DESCRIPCION": "La Paz"
    },
    {
        "ID": 8386,
        "NOMBRE": "ATM: 358 Tren Metropolitano",
        "TIPO": "T",
        "SUB_TIPO": "T",
        "LATITUD": "-17.412095535174164",
        "LONGITUD": "-66.154133042991630",
        "HORARIO": "N",
        "TELEFONO": "800103999",
        "DIRECCION": "Av. 6 de agosto, Esq. Av. Barrientos, Estación Central \"San Antonio\".\r\n",
        "DESCRIPCION": "Cajero Automático"
    },
    {
        "ID": 6216,
        "NOMBRE": "ATM: 199 El Cristo Cobija",
        "TIPO": "T",
        "SUB_TIPO": "T",
        "LATITUD": "-11.027239473314118",
        "LONGITUD": "-68.75972529361438",
        "HORARIO": "S",
        "TELEFONO": "800103999",
        "DIRECCION": "Av. 9 de Febrero, Esq. Av. Internacional.",
        "DESCRIPCION": "Cajero Automático"
    },
    {
        "ID": 5612,
        "NOMBRE": "ATM: 700 Calatayud",
        "TIPO": "T",
        "SUB_TIPO": "T",
        "LATITUD": "-16.4940820965",
        "LONGITUD": "-68.148294107",
        "HORARIO": "S",
        "TELEFONO": "800103999",
        "DIRECCION": "Av. Alejo Calatayud esq. Angélica Azcui N° 569, Zona Callapampa.",
        "DESCRIPCION": "Cajero Automático"
    },
    {
        "ID": 7676,
        "NOMBRE": "ATM: 485 Alemana Tusequis",
        "TIPO": "T",
        "SUB_TIPO": "E",
        "LATITUD": "-17.740841331453550",
        "LONGITUD": "-63.157449901306990",
        "HORARIO": "S",
        "TELEFONO": "800103999",
        "DIRECCION": "Av. Alemana N°5310 entre 5to y 6to. Anillo.",
        "DESCRIPCION": "Cajero Automático"
    },
    {
        "ID": 7776,
        "NOMBRE": "ATM: 486 Alemana 7mo Anillo",
        "TIPO": "T",
        "SUB_TIPO": "T",
        "LATITUD": "-17.731389490547496",
        "LONGITUD": "-63.150057722418660",
        "HORARIO": "S",
        "TELEFONO": "800103999",
        "DIRECCION": "Av. Alemana N°6990 casi esq. 7mo. Anillo.",
        "DESCRIPCION": "Cajero Automático"
    },
    {
        "ID": 8536,
        "NOMBRE": "ATM: 555 Nuevo Mercado Los Pozos",
        "TIPO": "T",
        "SUB_TIPO": "E",
        "LATITUD": "-17.72557155801239",
        "LONGITUD": "-63.14695356938095",
        "HORARIO": "S",
        "TELEFONO": "800103999",
        "DIRECCION": "Av. Alemania, entre 7mo y 8vo Anillo, Mercado Nuevo Los Pozos",
        "DESCRIPCION": "Cajero Automático"
    },
    {
        "ID": 108,
        "NOMBRE": "ATM: 280 16 de Julio",
        "TIPO": "T",
        "SUB_TIPO": "T",
        "LATITUD": "-16.499636100000000",
        "LONGITUD": "-68.175055700000000",
        "HORARIO": "S",
        "TELEFONO": "800-103999",
        "DIRECCION": "Av. Alfonso Ugarte N° 108, Zona 16 de Julio, El Alto.",
        "DESCRIPCION": "Cajero Automático"
    },
    {
        "ID": 9259,
        "NOMBRE": "AGENCIA 16 DE JULIO",
        "TIPO": "A",
        "SUB_TIPO": "A",
        "LATITUD": "-16.496624359734284",
        "LONGITUD": "-68.17381296910072",
        "HORARIO": null,
        "TELEFONO": "(591-2)217-3000",
        "DIRECCION": "Av. Alfonso Ugarte N° 250, entre las Calles Pascoe y José Arzabe, Zona 16 de Julio, El Alto",
        "DESCRIPCION": "La Paz"
    },
    {
        "ID": 9473,
        "NOMBRE": "Kiosko de Autoservicio Ag.16 de Julio",
        "TIPO": "T",
        "SUB_TIPO": "K",
        "LATITUD": "-16.4965098092026",
        "LONGITUD": "-681738147231907",
        "HORARIO": "N",
        "TELEFONO": "3173000",
        "DIRECCION": "Av. Alfonso Ugarte N°250, entre las Calles Pascoe y\r\nJosé Arzabe",
        "DESCRIPCION": "Kiosko de Autoservicio"
    },
    {
        "ID": 9161,
        "NOMBRE": "ATM Of. 16 de Julio",
        "TIPO": "T",
        "SUB_TIPO": "T",
        "LATITUD": "-16.496564161568433",
        "LONGITUD": "-68.1738171161215",
        "HORARIO": "S",
        "TELEFONO": "(591-2)217-3000",
        "DIRECCION": "Av. Alfonso Ugarte N°250, entre las Calles Pascoe y José Arzabe, Zona 16 de Julio, El Alto.",
        "DESCRIPCION": "Cajero Automático"
    },
    {
        "ID": 153,
        "NOMBRE": "ATM: 310 Univ. Católica ",
        "TIPO": "T",
        "SUB_TIPO": "T",
        "LATITUD": "-17.373458333333300",
        "LONGITUD": "-66.142469444444400",
        "HORARIO": "S",
        "TELEFONO": "800-103999",
        "DIRECCION": "Av. América Esq. Av. General Galindo, Univ. Católica Boliviana San Pablo.",
        "DESCRIPCION": "Cajero Automático"
    },
    {
        "ID": 6231,
        "NOMBRE": "ATM: 345 Paseo Aranjuez",
        "TIPO": "T",
        "SUB_TIPO": "E",
        "LATITUD": "-17.3731658",
        "LONGITUD": "-66.1548584",
        "HORARIO": "N",
        "TELEFONO": "800103999",
        "DIRECCION": "Av. América N° 77, Esquina Calle Pantaleón Dalence, Paseo Aranjuez.",
        "DESCRIPCION": "Cajero Automático"
    },
    {
        "ID": 9483,
        "NOMBRE": "Kiosko de Autoservicio Ag. America",
        "TIPO": "T",
        "SUB_TIPO": "K",
        "LATITUD": "-17.3720968509482",
        "LONGITUD": "-66.1624919071939",
        "HORARIO": "N",
        "TELEFONO": "3173000",
        "DIRECCION": "Av. América esq. Libertador Bolívar",
        "DESCRIPCION": "Kiosko de Autoservicio"
    },
    {
        "ID": 9556,
        "NOMBRE": "Kiosko de Autoservicio Ag. America",
        "TIPO": "T",
        "SUB_TIPO": "K",
        "LATITUD": "-17.3720968509482",
        "LONGITUD": "-66.1624919071939",
        "HORARIO": "N",
        "TELEFONO": "3173000",
        "DIRECCION": "Av. América esq. Libertador Bolívar",
        "DESCRIPCION": "Kiosko de Autoservicio"
    },
    {
        "ID": 149,
        "NOMBRE": "AGENCIA AMÉRICA",
        "TIPO": "A",
        "SUB_TIPO": "A",
        "LATITUD": "-17.3722777778",
        "LONGITUD": "-66.1624388889",
        "HORARIO": "N",
        "TELEFONO": "(591-4) 417 3000",
        "DIRECCION": "Av. América esq. Libertador Bolívar.",
        "DESCRIPCION": "Cochabamba"
    },
    {
        "ID": 8876,
        "NOMBRE": "ATM: 364 Final América",
        "TIPO": "T",
        "SUB_TIPO": "T",
        "LATITUD": "-17.370965100000000",
        "LONGITUD": "-66.184111399999990",
        "HORARIO": "S",
        "TELEFONO": "800103999",
        "DIRECCION": "Av. América, entre la Calle Pasaje¿G¿ y  la Calle Andrés C. Ferrufino, Zona Sarcobamba,",
        "DESCRIPCION": "Cajero Automático"
    },
    {
        "ID": 5916,
        "NOMBRE": "ATM: 338 Aniceto Arce",
        "TIPO": "T",
        "SUB_TIPO": "T",
        "LATITUD": "-17.387085699601514",
        "LONGITUD": "-66.14817264376765",
        "HORARIO": "S",
        "TELEFONO": "800103999",
        "DIRECCION": "Av. Aniceto Arce N° 412 esq. Parque La Torre.",
        "DESCRIPCION": "Cajero Automático"
    },
    {
        "ID": 6183,
        "NOMBRE": "ATM: 729 Multicine",
        "TIPO": "T",
        "SUB_TIPO": "T",
        "LATITUD": "-16.5110226553352",
        "LONGITUD": "-68.12236955885186",
        "HORARIO": "N",
        "TELEFONO": "800103999",
        "DIRECCION": "Av. Arce entre Calles Pinilla y Gosálvez, Multicine.",
        "DESCRIPCION": "Cajero Automático"
    },
    {
        "ID": 105,
        "NOMBRE": "ATM: 173 Plaza Isabel La Católica",
        "TIPO": "T",
        "SUB_TIPO": "T",
        "LATITUD": "-16.508812200000000",
        "LONGITUD": "-68.124300900000000",
        "HORARIO": "S",
        "TELEFONO": "800-103999",
        "DIRECCION": "Av. Arce, Plaza Isabel La Católica.",
        "DESCRIPCION": "Cajero Automático"
    },
    {
        "ID": 9552,
        "NOMBRE": "Kiosko de Autoservicio Sucursal Cochabamba II",
        "TIPO": "T",
        "SUB_TIPO": "K",
        "LATITUD": "-17.3934490639462",
        "LONGITUD": "-66.1589173314325",
        "HORARIO": "N",
        "TELEFONO": "3173000",
        "DIRECCION": "Av. Ayacucho N° 174, esq. General Acha",
        "DESCRIPCION": "Kiosko de Autoservicio"
    },
    {
        "ID": 9550,
        "NOMBRE": "Kiosko de Autoservicio Sucursal Cochabamba",
        "TIPO": "T",
        "SUB_TIPO": "K",
        "LATITUD": "-17.3934490639462",
        "LONGITUD": "-66.1589173314325",
        "HORARIO": "N",
        "TELEFONO": "3173000",
        "DIRECCION": "Av. Ayacucho N° 174, esq. General Acha",
        "DESCRIPCION": "Kiosko de Autoservicio"
    },
    {
        "ID": 6821,
        "NOMBRE": "ATM: 344 Suc. Cochabamba II",
        "TIPO": "T",
        "SUB_TIPO": "T",
        "LATITUD": "-17.393477205996252",
        "LONGITUD": "-66.158856163474950",
        "HORARIO": "S",
        "TELEFONO": "800103999",
        "DIRECCION": "Av. Ayacucho Nº 174, Esq. General Acha,  Edif. Mª. Antonieta ¿ PB.",
        "DESCRIPCION": "Cajero Automático"
    },
    {
        "ID": 147,
        "NOMBRE": "SUCURSAL COCHABAMBA",
        "TIPO": "A",
        "SUB_TIPO": "A",
        "LATITUD": "-17.393488229534945",
        "LONGITUD": "-66.158817117734510",
        "HORARIO": "N",
        "TELEFONO": "(591-4) 417 3000",
        "DIRECCION": "Av. Ayacucho Nº174 esq. General Achá, Edif. Mª. Antonieta - PB ",
        "DESCRIPCION": "Cochabamba"
    },
    {
        "ID": 151,
        "NOMBRE": "ATM: 185 Suc. Cochabamba",
        "TIPO": "T",
        "SUB_TIPO": "E",
        "LATITUD": "-17.393500925454360",
        "LONGITUD": "-66.158845227781680",
        "HORARIO": "S",
        "TELEFONO": "800-103999",
        "DIRECCION": "Av. Ayacucho S-174 Edif. M. Antonieta - PB",
        "DESCRIPCION": "Cajero Automático"
    },
    {
        "ID": 9548,
        "NOMBRE": "Kiosko de Autoservicio Terminal de buses",
        "TIPO": "T",
        "SUB_TIPO": "K",
        "LATITUD": "-17.4025480022406",
        "LONGITUD": "-66.1576065645339",
        "HORARIO": "N",
        "TELEFONO": "3173000",
        "DIRECCION": "Av. Ayacucho, Terminal de Buses",
        "DESCRIPCION": "Kiosko de Autoservicio"
    },
    {
        "ID": 6382,
        "NOMBRE": "ATM: 348 Beijing",
        "TIPO": "T",
        "SUB_TIPO": "T",
        "LATITUD": "-17.375058385080788",
        "LONGITUD": "-66.18061191965923",
        "HORARIO": "S",
        "TELEFONO": "800103999",
        "DIRECCION": "Av. Beijing casi Esq. De la Calle Juan de la Rosa",
        "DESCRIPCION": "Cajero Automático"
    },
    {
        "ID": 57,
        "NOMBRE": "ATM: 245 Depositario Hamacas",
        "TIPO": "T",
        "SUB_TIPO": "E",
        "LATITUD": "-17.755405555555600",
        "LONGITUD": "-63.171963888888900",
        "HORARIO": "S",
        "TELEFONO": "800-103999",
        "DIRECCION": "Av. Beni N° 3410, Barrio Hamacas, entre 3er y 4to anillo.",
        "DESCRIPCION": "Cajero Automático"
    },
    {
        "ID": 6380,
        "NOMBRE": "ATM: 347 Cine Center Quilla",
        "TIPO": "T",
        "SUB_TIPO": "E",
        "LATITUD": "-17.3930086",
        "LONGITUD": "-66.27321189999999",
        "HORARIO": "S",
        "TELEFONO": "800103999",
        "DIRECCION": "Av. Blanco Galindo Km. 12, Cine Center, Quillacollo",
        "DESCRIPCION": "Cajero Automático"
    },
    {
        "ID": 5600,
        "NOMBRE": "ATM: 327 Av. Juan Pablo II",
        "TIPO": "T",
        "SUB_TIPO": "E",
        "LATITUD": "-17.392370913929760",
        "LONGITUD": "-66.199350680937100",
        "HORARIO": "S",
        "TELEFONO": "800103999",
        "DIRECCION": "Av. Blanco Galindo y Juan Pablo II, N° 3592, Zona Seminario.",
        "DESCRIPCION": "Cajero Automático"
    },
    {
        "ID": 152,
        "NOMBRE": "ATM: 318 Blanco Galindo - Depositario",
        "TIPO": "T",
        "SUB_TIPO": "E",
        "LATITUD": "-17.393697222222200",
        "LONGITUD": "-66.168383333333300",
        "HORARIO": "S",
        "TELEFONO": "800-103999",
        "DIRECCION": "Av. Blanco Galindo, Esquina Calle Francisco Viedma, Zona Hipodromo.",
        "DESCRIPCION": "Cajero Automático"
    },
    {
        "ID": 8937,
        "NOMBRE": "ATM: 748 Agencia Uyustus",
        "TIPO": "T",
        "SUB_TIPO": "T",
        "LATITUD": "-16.495026861748677",
        "LONGITUD": "-68.14413837495371",
        "HORARIO": "S",
        "TELEFONO": "800103999",
        "DIRECCION": "Av. Buenos Aires Nro 555, casi esq. Av. Tumusla.",
        "DESCRIPCION": "Cajero Automático"
    },
    {
        "ID": 8933,
        "NOMBRE": "Agencia UYUSTUS",
        "TIPO": "A",
        "SUB_TIPO": "A",
        "LATITUD": "-16.495026861748677",
        "LONGITUD": "-68.14413837495371",
        "HORARIO": null,
        "TELEFONO": "800103999",
        "DIRECCION": "Av. Buenos Aires N° 555, casi Esq. Av. Tumusla",
        "DESCRIPCION": "Agencia"
    },
    {
        "ID": 9471,
        "NOMBRE": "Kiosko de Autoservicio Ag. Uyustus",
        "TIPO": "T",
        "SUB_TIPO": "K",
        "LATITUD": "-16.4950348392647",
        "LONGITUD": "-68.1442831838113",
        "HORARIO": "N",
        "TELEFONO": "3173000",
        "DIRECCION": "Av. Buenos Aires N° 555, casi esq. Av. Tumusla",
        "DESCRIPCION": "Kiosko de Autoservicio"
    },
    {
        "ID": 5295,
        "NOMBRE": "Kiosco Smart Miraflores",
        "TIPO": "T",
        "SUB_TIPO": "K",
        "LATITUD": "-16.50254877163866",
        "LONGITUD": "-68.12075507393416",
        "HORARIO": "S",
        "TELEFONO": "800103999",
        "DIRECCION": "Av. Busch esq., Calle Villa Lobos N° 1997, Zona Miraflores (Sala de Autoservicios).",
        "DESCRIPCION": "Kiosco dispensador de Tarjetas de Débito"
    },
    {
        "ID": 1,
        "NOMBRE": "AGENCIA CIUDAD REAL",
        "TIPO": "A",
        "SUB_TIPO": "A",
        "LATITUD": "-17.772537706420067",
        "LONGITUD": "-63.202538138317610",
        "HORARIO": "N",
        "TELEFONO": "(591-3) 317-3000",
        "DIRECCION": "Av. Busch y 3er Anillo Int. Centro Comercial Casa Design Center, Local Nº 5 Bloque K.",
        "DESCRIPCION": "Santa Cruz"
    },
    {
        "ID": 9489,
        "NOMBRE": "Kiosko de Autoservicio Ag. Ciudad Real",
        "TIPO": "T",
        "SUB_TIPO": "K",
        "LATITUD": "-17.77261458622337",
        "LONGITUD": "-63.20232269334983",
        "HORARIO": "N",
        "TELEFONO": "3173000",
        "DIRECCION": "Av. Busch y 3er Anillo Interno, Local 5, bloque K,\r\nCentro Comercial Design Center",
        "DESCRIPCION": "Kiosko de Autoservicio"
    },
    {
        "ID": 9479,
        "NOMBRE": "Kiosko de Autoservicio Ag. Ciudad Real II",
        "TIPO": "T",
        "SUB_TIPO": "K",
        "LATITUD": "-17.77265145304150",
        "LONGITUD": "-63.20247821509838",
        "HORARIO": "N",
        "TELEFONO": "3173000",
        "DIRECCION": "Av. Busch y 3er Anillo Interno, Local 5, bloque K,\r\nCentro Comercial Design Center",
        "DESCRIPCION": "Kiosko de Autoservicio"
    },
    {
        "ID": 6141,
        "NOMBRE": "ATM: 215 Edif. URANORTE",
        "TIPO": "T",
        "SUB_TIPO": "E",
        "LATITUD": "-17.953497250368596",
        "LONGITUD": "-67.10982799940815",
        "HORARIO": "S",
        "TELEFONO": "800103999",
        "DIRECCION": "Av. Busch, Esq. Calle Campo Jordan, Edificio URANORTE",
        "DESCRIPCION": "Cajero Automático"
    },
    {
        "ID": 102,
        "NOMBRE": "ATM: 287 Sucursal La Paz",
        "TIPO": "T",
        "SUB_TIPO": "E",
        "LATITUD": "-16.499170098320846",
        "LONGITUD": "-68.133818564622620",
        "HORARIO": "S",
        "TELEFONO": "800-103999",
        "DIRECCION": "Av. Camacho N 1372 (Zona Central)",
        "DESCRIPCION": "Cajero Automático"
    },
    {
        "ID": 9451,
        "NOMBRE": "Kiosko de Autoservicio Sucursal La Paz",
        "TIPO": "T",
        "SUB_TIPO": "K",
        "LATITUD": "-16.4990272410329",
        "LONGITUD": "-68.1338143314020",
        "HORARIO": "N",
        "TELEFONO": "3173000",
        "DIRECCION": "Av. Camacho N° 1372",
        "DESCRIPCION": "Kiosko de Autoservicio Sucursal La Paz"
    },
    {
        "ID": 3952,
        "NOMBRE": "ATM: 294 Sucursal La Paz II",
        "TIPO": "T",
        "SUB_TIPO": "E",
        "LATITUD": "-16.499258700000000",
        "LONGITUD": "-68.133849200000000",
        "HORARIO": "S",
        "TELEFONO": "800103999",
        "DIRECCION": "Av. Camacho N° 1372, Sala de Autoservicios de Sucursal La Paz",
        "DESCRIPCION": "Cajero Automático"
    },
    {
        "ID": 9453,
        "NOMBRE": "Kiosko de Autoservicio Sucursal La Paz II",
        "TIPO": "T",
        "SUB_TIPO": "S",
        "LATITUD": "-16.4990272410329",
        "LONGITUD": "-68.1338143314020",
        "HORARIO": "N",
        "TELEFONO": "3173000",
        "DIRECCION": "Av. Camacho N°1372",
        "DESCRIPCION": "Kiosko de Autoservicio"
    },
    {
        "ID": 99,
        "NOMBRE": "SUCURSAL LA PAZ",
        "TIPO": "A",
        "SUB_TIPO": "A",
        "LATITUD": "-16.499160534593920",
        "LONGITUD": "-68.133848788508470",
        "HORARIO": "N",
        "TELEFONO": "(591-2) 217-3000",
        "DIRECCION": "Av. Camacho N°1372, Zona Central.",
        "DESCRIPCION": "La Paz"
    },
    {
        "ID": 5918,
        "NOMBRE": "ATM: 339 Victor Ustariz",
        "TIPO": "T",
        "SUB_TIPO": "T",
        "LATITUD": "-17.397418768090006",
        "LONGITUD": "-66.20003316682282",
        "HORARIO": "S",
        "TELEFONO": "800103999",
        "DIRECCION": "Av. Capitán Victor Ustáriz y Juan Pablo II.",
        "DESCRIPCION": "Cajero Automático"
    },
    {
        "ID": 8859,
        "NOMBRE": "ATM: 134 Av. Cañoto - Euroenvios",
        "TIPO": "T",
        "SUB_TIPO": "T",
        "LATITUD": "-17.778565800000000",
        "LONGITUD": "-63.188709400000000",
        "HORARIO": "S",
        "TELEFONO": "800103999",
        "DIRECCION": "Av. Cañoto Nº 476, casi esq. Calle México, 1er. Anillo, Frente a la Clínica Niño Jesús",
        "DESCRIPCION": "Cajero Automático"
    },
    {
        "ID": 8624,
        "NOMBRE": "ATM: 572 Centenario",
        "TIPO": "T",
        "SUB_TIPO": "E",
        "LATITUD": "-17.779929700000000",
        "LONGITUD": "-63.191287899999990",
        "HORARIO": "S",
        "TELEFONO": "800103999",
        "DIRECCION": "Av. Centenario N° 115, entre Av. Cañoto y Av. 26 de Febrero",
        "DESCRIPCION": "Cajero Automático"
    },
    {
        "ID": 6069,
        "NOMBRE": "ATM: 906 Super La Familia",
        "TIPO": "T",
        "SUB_TIPO": "T",
        "LATITUD": "-14.827661111111100",
        "LONGITUD": "-64.902786111111100",
        "HORARIO": "S",
        "TELEFONO": "800103999",
        "DIRECCION": "Av. Cipriano Barace, esq. Calle Gil Coimbra.",
        "DESCRIPCION": "Cajero Automático "
    },
    {
        "ID": 8474,
        "NOMBRE": "ATM: 414 Hipermaxi Montero",
        "TIPO": "T",
        "SUB_TIPO": "E",
        "LATITUD": "-17.333364800000000",
        "LONGITUD": "-63.255512199999990",
        "HORARIO": "S",
        "TELEFONO": "800103999",
        "DIRECCION": "Av. Circunvalación Andrés Ibañez, entre Av. Panamericana y Calle Roberto Paz, Hipermaxi Montero.",
        "DESCRIPCION": "Cajero Automático"
    },
    {
        "ID": 7235,
        "NOMBRE": "ATM: 524 German Moreno",
        "TIPO": "T",
        "SUB_TIPO": "E",
        "LATITUD": "-17.344510000000000",
        "LONGITUD": "-63.247694899999990",
        "HORARIO": "S",
        "TELEFONO": "800103999",
        "DIRECCION": "Av. Circunvalación Este N° 544 entre Calles Amador Parada y Ezequiel Saucedo, Barrio 25 de Diciembre, Zona Mercado German Moreno.",
        "DESCRIPCION": "Cajero Automático"
    },
    {
        "ID": 7237,
        "NOMBRE": "ATM: 525 Sur Montero",
        "TIPO": "T",
        "SUB_TIPO": "T",
        "LATITUD": "-17.352037500000000",
        "LONGITUD": "-63.249543600000000",
        "HORARIO": "S",
        "TELEFONO": "800103999",
        "DIRECCION": "Av. Circunvalación Sur N° 764, entre Calles Warnes y 24 de Septiembre, Barrio San Ramón de la Víbora.",
        "DESCRIPCION": "Cajero Automático"
    },
    {
        "ID": 5609,
        "NOMBRE": "ATM: 331 Tikillajta",
        "TIPO": "T",
        "SUB_TIPO": "E",
        "LATITUD": "-17.358568427632956",
        "LONGITUD": "-66.173311661512310",
        "HORARIO": "S",
        "TELEFONO": "800103999",
        "DIRECCION": "Av. Circunvalación, esq. Calle Tikallajta N° 3717, Zona Mayorazgo",
        "DESCRIPCION": "Cajero Automático"
    },
    {
        "ID": 5605,
        "NOMBRE": "ATM: 329 Pacata",
        "TIPO": "T",
        "SUB_TIPO": "E",
        "LATITUD": "-17.373262738396200",
        "LONGITUD": "-66.124126869366700",
        "HORARIO": "S",
        "TELEFONO": "800103999",
        "DIRECCION": "Av. Circunvalación, esq. Pedro Carrasco N° 125, Zona Pacata Baja, Municipio de Sacaba.",
        "DESCRIPCION": "Cajero Automático"
    },
    {
        "ID": 2,
        "NOMBRE": "AGENCIA NORTE",
        "TIPO": "A",
        "SUB_TIPO": "A",
        "LATITUD": "-17.755854258813370",
        "LONGITUD": "-63.177843722308990",
        "HORARIO": "N",
        "TELEFONO": "(591-3) 317-3000",
        "DIRECCION": "Av. Cristo Redentor esq. Calle Monteniche, entre 3er y 4to. Anillo.",
        "DESCRIPCION": "Santa Cruz"
    },
    {
        "ID": 8705,
        "NOMBRE": "ATM: 156 Hipermaxi Norte",
        "TIPO": "T",
        "SUB_TIPO": "T",
        "LATITUD": "-17.759958460826294",
        "LONGITUD": "-63.17836839632988",
        "HORARIO": "S",
        "TELEFONO": "800103999",
        "DIRECCION": "Av. Cristo Redentor, 3er Anillo Interno, Supermercado Hipermaxi Norte",
        "DESCRIPCION": "Cajero Automático"
    },
    {
        "ID": 1698,
        "NOMBRE": "ATM: 412 Surtidor Rivero",
        "TIPO": "T",
        "SUB_TIPO": "T",
        "LATITUD": "-17.762504579694912",
        "LONGITUD": "-63.18064548309269",
        "HORARIO": "S",
        "TELEFONO": "800-103999",
        "DIRECCION": "Av. Cristo Redentor, Esq, Calle Medardo Chavez, entre 2do, y 3er, Anillo.",
        "DESCRIPCION": "Cajero Automático"
    },
    {
        "ID": 6414,
        "NOMBRE": "ATM: 521 Sala Ferbo IV",
        "TIPO": "T",
        "SUB_TIPO": "E",
        "LATITUD": "-17.736286144353073",
        "LONGITUD": "-63.170145434455385",
        "HORARIO": "S",
        "TELEFONO": "800103999",
        "DIRECCION": "Av. Cristo Redentor, entre 5to. y 6to. Anillo, esq. Av. San Silvestre.",
        "DESCRIPCION": "Cajero Automático"
    },
    {
        "ID": 8807,
        "NOMBRE": "ATM: 241 Hipermaxi Supercenter ",
        "TIPO": "T",
        "SUB_TIPO": "T",
        "LATITUD": "-17.728234358203526",
        "LONGITUD": "-63.16645382559484",
        "HORARIO": "S",
        "TELEFONO": "800103999",
        "DIRECCION": "Av. Cristo Redentor, entre 6to. y 7mo. Anillo, Zona Norte, Supermercado Hipermaxi Supercenter ",
        "DESCRIPCION": "Cajero Automático"
    },
    {
        "ID": 5132,
        "NOMBRE": "ATM: 460 Auto ATM Barrio Ferbo-II",
        "TIPO": "T",
        "SUB_TIPO": "L",
        "LATITUD": "-17.736265500647770",
        "LONGITUD": "-63.170028742838916",
        "HORARIO": "S",
        "TELEFONO": "800103999",
        "DIRECCION": "Av. Cristo Redentor, entre el 5to. y 6to. Anillo, esq. Av. San Silvestre, Barrio Ferbo de la Zona Norte.",
        "DESCRIPCION": "Cajero Automático"
    },
    {
        "ID": 5130,
        "NOMBRE": "ATM: 459 Auto ATM Barrio Ferbo-I",
        "TIPO": "T",
        "SUB_TIPO": "L",
        "LATITUD": "-17.736263903947390",
        "LONGITUD": "-63.170030083943420",
        "HORARIO": "S",
        "TELEFONO": "800103999",
        "DIRECCION": "Av. Cristo Redentor, entre el 5to. y 6to. Anillo, esq. Av. San Silvestre, Barrio Ferbo de la Zona Norte.",
        "DESCRIPCION": "Cajero Automático"
    },
    {
        "ID": 5254,
        "NOMBRE": "ATM: 461 Auto ATM Barrio Ferbo-III",
        "TIPO": "T",
        "SUB_TIPO": "L",
        "LATITUD": "-17.736278022930190",
        "LONGITUD": "-63.170028763563920",
        "HORARIO": "S",
        "TELEFONO": "800103999",
        "DIRECCION": "Av. Cristo Redentor, entre el 5to. y 6to. Anillo, esq. Av. San Silvestre, Barrio Ferbo de la Zona Norte.",
        "DESCRIPCION": "Cajero Automático"
    },
    {
        "ID": 4684,
        "NOMBRE": "ATM: 454 Auto Atm Agencia Norte",
        "TIPO": "T",
        "SUB_TIPO": "L",
        "LATITUD": "-17.755772990809460",
        "LONGITUD": "-63.178154515774540",
        "HORARIO": "S",
        "TELEFONO": "80010399",
        "DIRECCION": "Av. Cristo Redentor, equina Calle Monteniche, entre 3er y 4to. Anillo.",
        "DESCRIPCION": "Cajero Automático"
    },
    {
        "ID": 6416,
        "NOMBRE": "ATM: 522 Especial Sala Ferbo",
        "TIPO": "T",
        "SUB_TIPO": "J",
        "LATITUD": "-17.736292488835375",
        "LONGITUD": "-63.170096050401300",
        "HORARIO": "S",
        "TELEFONO": "800103999",
        "DIRECCION": "Av. Cristo Redentor, esq. Av. San Silvestre, entre 5to. y 6to. Anillo.",
        "DESCRIPCION": "Cajero Automático para Discapacitados"
    },
    {
        "ID": 9485,
        "NOMBRE": "Kiosko de Autoservicio Ag. Norte",
        "TIPO": "T",
        "SUB_TIPO": "K",
        "LATITUD": "-17.75574352882005",
        "LONGITUD": "-63.177971365572276",
        "HORARIO": "N",
        "TELEFONO": "3173000",
        "DIRECCION": "Av. Cristo Redentor, esq. Calle Monteniche, entre\r\n3er y 4to Anillo",
        "DESCRIPCION": "Kiosko de Autoservicio"
    },
    {
        "ID": 9481,
        "NOMBRE": "Kiosko de Autoservicio Ag. Norte II",
        "TIPO": "T",
        "SUB_TIPO": "K",
        "LATITUD": "-17.75574352882005",
        "LONGITUD": "-63.177971365572276",
        "HORARIO": "N",
        "TELEFONO": "3173000",
        "DIRECCION": "Av. Cristo Redentor, esq. Calle Monteniche, entre\r\n3er y 4to Anillo",
        "DESCRIPCION": "Kiosko de Autoservicio"
    },
    {
        "ID": 1692,
        "NOMBRE": "ATM: 411 Jugueteria La Ganga",
        "TIPO": "T",
        "SUB_TIPO": "T",
        "LATITUD": "-17.772333311553424",
        "LONGITUD": "-63.189029532225390",
        "HORARIO": "S",
        "TELEFONO": "800-103999",
        "DIRECCION": "Av. Cristobal de Mendoza, 2do Anillo, Esquina Honduras",
        "DESCRIPCION": "Cajero Automático"
    },
    {
        "ID": 6411,
        "NOMBRE": "ATM: 519 Agencia Paragua II",
        "TIPO": "T",
        "SUB_TIPO": "E",
        "LATITUD": "-17.764815000000000",
        "LONGITUD": "-63.149412800000000",
        "HORARIO": "S",
        "TELEFONO": "800103999",
        "DIRECCION": "Av. Cuarto Anillo, Esquina Av. Paragua.",
        "DESCRIPCION": "Cajero Automático"
    },
    {
        "ID": 8626,
        "NOMBRE": "ATM: 571 Cumavi II",
        "TIPO": "T",
        "SUB_TIPO": "T",
        "LATITUD": "-17.792203100000000",
        "LONGITUD": "-63.131115200000000",
        "HORARIO": "S",
        "TELEFONO": "800103999",
        "DIRECCION": "Av. Cumavi 3 cuadras antes de la Av. 16 de Julio",
        "DESCRIPCION": "Cajero Automático"
    },
    {
        "ID": 8644,
        "NOMBRE": "ATM: 743 Chasquipampa",
        "TIPO": "T",
        "SUB_TIPO": "T",
        "LATITUD": "-16.536541300000000",
        "LONGITUD": "-68.046309999999990",
        "HORARIO": "S",
        "TELEFONO": "800103999",
        "DIRECCION": "Av. Defensores del Chaco N° 90, Zona Chasquipampa",
        "DESCRIPCION": "Cajero Automático"
    },
    {
        "ID": 8799,
        "NOMBRE": "ATM: 402 Hospital Obrero",
        "TIPO": "T",
        "SUB_TIPO": "T",
        "LATITUD": "-17.767184300000000",
        "LONGITUD": "-63.156567499999990",
        "HORARIO": "S",
        "TELEFONO": "800103999",
        "DIRECCION": "Av. Del Japón Esq. Ponce León, 3er Anillo Externo, frente al Hospital Obrero, entre Av. Paragua y Av. Mutualista.",
        "DESCRIPCION": "Cajero Automático"
    },
    {
        "ID": 6953,
        "NOMBRE": "ATM: 526 Autocajero I California",
        "TIPO": "T",
        "SUB_TIPO": "L",
        "LATITUD": "-17.821325300000000",
        "LONGITUD": "-63.218480600000010",
        "HORARIO": "S",
        "TELEFONO": "800103999",
        "DIRECCION": "Av. Doble Vía La Guardia entre 5to y 6to Anillo, Esq. Calle San Francisco, Barrio California, ",
        "DESCRIPCION": "Cajero Automático"
    },
    {
        "ID": 6955,
        "NOMBRE": "ATM: 527 California Autocajero II",
        "TIPO": "T",
        "SUB_TIPO": "L",
        "LATITUD": "-17.821325300000000",
        "LONGITUD": "-63.218480600000010",
        "HORARIO": "S",
        "TELEFONO": "800103999",
        "DIRECCION": "Av. Doble Vía La Guardia entre 5to y 6to Anillo, Esq. Calle San Francisco, Barrio California, ",
        "DESCRIPCION": "Cajero Automático"
    },
    {
        "ID": 6957,
        "NOMBRE": "ATM: 528 Sala California III",
        "TIPO": "T",
        "SUB_TIPO": "E",
        "LATITUD": "-17.821325300000000",
        "LONGITUD": "-63.218480600000010",
        "HORARIO": "S",
        "TELEFONO": "800103999",
        "DIRECCION": "Av. Doble Vía La Guardia entre 5to y 6to Anillo, Esq. Calle San Francisco, Barrio California, ",
        "DESCRIPCION": "Cajero Automático"
    },
    {
        "ID": 6959,
        "NOMBRE": "ATM: 529 Especial Sala California",
        "TIPO": "T",
        "SUB_TIPO": "J",
        "LATITUD": "-17.821325300000000",
        "LONGITUD": "-63.218480600000010",
        "HORARIO": "S",
        "TELEFONO": "800103999",
        "DIRECCION": "Av. Doble Vía La Guardia, Esq. Calle San Francisco, entre 5to y 6to Anillo, Barrio California.",
        "DESCRIPCION": "Cajero Automático para Discapacitados"
    },
    {
        "ID": 8195,
        "NOMBRE": "ATM: 542 Hipermaxi La Guardia Km.12",
        "TIPO": "T",
        "SUB_TIPO": "T",
        "LATITUD": "-17.867430900000000",
        "LONGITUD": "-63.271545900000010",
        "HORARIO": "S",
        "TELEFONO": "800103999",
        "DIRECCION": "Av. Doble Vía La Guardia, Km. 12, Supermercado Hipermaxi.",
        "DESCRIPCION": "Cajero Automático"
    },
    {
        "ID": 8868,
        "NOMBRE": "ATM: 445 Hipermaxi Mutualista",
        "TIPO": "T",
        "SUB_TIPO": "T",
        "LATITUD": "-17.765693500000000",
        "LONGITUD": "-63.159513900000010",
        "HORARIO": "S",
        "TELEFONO": "800103999",
        "DIRECCION": "Av. Doctor Lucas Saucedo, 3er. Anillo Interno, entre la Av. Mutualista y Av. Paragua, Supermercado Hipermaxi ",
        "DESCRIPCION": "Cajero Automático"
    },
    {
        "ID": 26,
        "NOMBRE": "ATM: 256 Agencia Mutualista II",
        "TIPO": "T",
        "SUB_TIPO": "E",
        "LATITUD": "-17.7629250000000000",
        "LONGITUD": "-63.163372222222200",
        "HORARIO": "S",
        "TELEFONO": "800-103999",
        "DIRECCION": "Av. Dr. Lucas Saucedo  Nº 1050, 3er anillo interno entre calles Sandía y Buena Vista.",
        "DESCRIPCION": "Cajero Automático"
    },
    {
        "ID": 6232,
        "NOMBRE": "ATM: 346 IC Norte Dorbigny",
        "TIPO": "T",
        "SUB_TIPO": "T",
        "LATITUD": "-17.388266979297200",
        "LONGITUD": "-66.179420200000000",
        "HORARIO": "N",
        "TELEFONO": "800103999",
        "DIRECCION": "Av. D¿Orbigny, Esq. Av. Melchor Perez de Olguin, Shopping IC Norte.",
        "DESCRIPCION": "Cajero Automático"
    },
    {
        "ID": 5914,
        "NOMBRE": "ATM: 337 Aldea SOS",
        "TIPO": "T",
        "SUB_TIPO": "T",
        "LATITUD": "-17.35095880611025",
        "LONGITUD": "-66.1928166170432",
        "HORARIO": "S",
        "TELEFONO": "800103999",
        "DIRECCION": "Av. Ecológica N° 250 casi esquina Av. Linde. ",
        "DESCRIPCION": "Cajero Automático"
    },
    {
        "ID": 8578,
        "NOMBRE": "ATM: 561 Los Pocitos ",
        "TIPO": "T",
        "SUB_TIPO": "T",
        "LATITUD": "-17.841449000000000",
        "LONGITUD": "-63.109974200000000",
        "HORARIO": "S",
        "TELEFONO": "800103999",
        "DIRECCION": "Av. El Paurito, Surtidor Los Pocitos, Zona del mercado Los Pocitos ",
        "DESCRIPCION": "Cajero Automático"
    },
    {
        "ID": 7779,
        "NOMBRE": "ATM: 487 El Remanso",
        "TIPO": "T",
        "SUB_TIPO": "T",
        "LATITUD": "-17.714591992173236",
        "LONGITUD": "-63.168740218016560",
        "HORARIO": "S",
        "TELEFONO": "800103999",
        "DIRECCION": "Av. El Remanso, 8vo. Anillo N° 9005.",
        "DESCRIPCION": "Cajero Automático"
    },
    {
        "ID": 8617,
        "NOMBRE": "ATM: 468 Especial Madre india",
        "TIPO": "T",
        "SUB_TIPO": "E",
        "LATITUD": "-17.797623300000000",
        "LONGITUD": "-63.174597699999990",
        "HORARIO": "S",
        "TELEFONO": "800103999",
        "DIRECCION": "Av. El trompillo, Esq. Av. Argentina, 2do. Anillo, Sala de Autoservicios.",
        "DESCRIPCION": "Cajero Automático"
    },
    {
        "ID": 5179,
        "NOMBRE": "ATM: 469 Autocajero Madre India ",
        "TIPO": "T",
        "SUB_TIPO": "L",
        "LATITUD": "-17.797773304367695",
        "LONGITUD": "-63.174668985159684",
        "HORARIO": "S",
        "TELEFONO": "800103999",
        "DIRECCION": "Av. El trompillo, esquina Avenida Argentina, 2do. Anillo.",
        "DESCRIPCION": "Cajero Automático"
    },
    {
        "ID": 8943,
        "NOMBRE": "ATM: 366 Embol Quillacollo",
        "TIPO": "T",
        "SUB_TIPO": "T",
        "LATITUD": "-17.389638200000000",
        "LONGITUD": "-66.250964799999990",
        "HORARIO": "S",
        "TELEFONO": "800103999",
        "DIRECCION": "Av. Elias Meneses S/N. Quillacollo, Instalaciones de EMBOL Planta Cochabamba",
        "DESCRIPCION": "Cajero Automático"
    },
    {
        "ID": 159,
        "NOMBRE": "ATM: 314 Villazon",
        "TIPO": "T",
        "SUB_TIPO": "T",
        "LATITUD": "-17.3754166667",
        "LONGITUD": "-66.1292194444",
        "HORARIO": "S",
        "TELEFONO": "800-103999",
        "DIRECCION": "Av. Eliodoro Villazon km.2.5, Rotonda Servicio de Caminos, Carretera a Sacaba.",
        "DESCRIPCION": "Cajero Automático"
    },
    {
        "ID": 8642,
        "NOMBRE": "ATM: 361 Hipermaxi Sacaba",
        "TIPO": "T",
        "SUB_TIPO": "T",
        "LATITUD": "-17.382290600000000",
        "LONGITUD": "-66.118897199999990",
        "HORARIO": "S",
        "TELEFONO": "800103999",
        "DIRECCION": "Av. Eliodoro Villazón Km. 3, s/n.",
        "DESCRIPCION": "Cajero Automático"
    },
    {
        "ID": 6139,
        "NOMBRE": "ATM: 216 Mercado Young",
        "TIPO": "T",
        "SUB_TIPO": "E",
        "LATITUD": "-17.97934044706402",
        "LONGITUD": "-67.1306160075226",
        "HORARIO": "S",
        "TELEFONO": "800103999",
        "DIRECCION": "Av. España entre Av. Dehene y Calle Salamanca.",
        "DESCRIPCION": "Cajero Automático"
    },
    {
        "ID": 118,
        "NOMBRE": "ATM: 289 Villa San Antonio",
        "TIPO": "T",
        "SUB_TIPO": "T",
        "LATITUD": "-16.495631600000000",
        "LONGITUD": "-68.116284300000000",
        "HORARIO": "S",
        "TELEFONO": "800-103999",
        "DIRECCION": "Av. Esteban Arce N° 1827, Cruce Villa San Antonio, Villa Copacabana.",
        "DESCRIPCION": "Cajero Automático"
    },
    {
        "ID": 7973,
        "NOMBRE": "ATM: 740 Achumani Sala II ",
        "TIPO": "T",
        "SUB_TIPO": "T",
        "LATITUD": "-16.531581016727753",
        "LONGITUD": "-68.07307205871138",
        "HORARIO": "S",
        "TELEFONO": "800103999",
        "DIRECCION": "Av. Garcia Lanza N°18, entre Calles 15 y 16, Zona Achumani.",
        "DESCRIPCION": "Cajero Automático"
    },
    {
        "ID": 7975,
        "NOMBRE": "ATM: 738 AutoCajero Achumani",
        "TIPO": "T",
        "SUB_TIPO": "E",
        "LATITUD": "-16.531449853581382",
        "LONGITUD": "-68.07281855039206",
        "HORARIO": "S",
        "TELEFONO": "800103999",
        "DIRECCION": "Av. Garcia Lanza N°18, entre Calles 15 y 16, Zona Achumani.",
        "DESCRIPCION": "Cajero Automático"
    },
    {
        "ID": 7971,
        "NOMBRE": "ATM: 739 I Sala Achumani ",
        "TIPO": "T",
        "SUB_TIPO": "E",
        "LATITUD": "-16.53157865566002",
        "LONGITUD": "-68.07297143282138",
        "HORARIO": "S",
        "TELEFONO": "800103999",
        "DIRECCION": "Av. Garcia Lanza N°18, entre Calles 15 y 16, Zona Achumani.",
        "DESCRIPCION": "Cajero Automático"
    },
    {
        "ID": 76,
        "NOMBRE": "ATM: 272 Depositario Agencia Grigota",
        "TIPO": "T",
        "SUB_TIPO": "E",
        "LATITUD": "-17.799406086504376",
        "LONGITUD": "-63.193762992138590",
        "HORARIO": "S",
        "TELEFONO": "800-103999",
        "DIRECCION": "Av. Grigota N° 163,  entre 2do y 3er Anillo, Zona El Pary UV-28, Mz-5 ",
        "DESCRIPCION": "Cajero Automático"
    },
    {
        "ID": 6409,
        "NOMBRE": "ATM: 520 Agencia Grigota II",
        "TIPO": "T",
        "SUB_TIPO": "E",
        "LATITUD": "-17.799457716670293",
        "LONGITUD": "-63.193837108080494",
        "HORARIO": "S",
        "TELEFONO": "800103999",
        "DIRECCION": "Av. Grigotá N° 163,  entre 2do. y 3er. Anillo, Zona El Pari.",
        "DESCRIPCION": "Cajero Automático"
    },
    {
        "ID": 9537,
        "NOMBRE": "Kiosko de Autoservicio  Ag. Grigota",
        "TIPO": "T",
        "SUB_TIPO": "K",
        "LATITUD": "-17.79935590677373",
        "LONGITUD": "-63.192856538097125",
        "HORARIO": "N",
        "TELEFONO": "3 173000",
        "DIRECCION": "Av. Grigotá N° 163, entre 2do y 3er Anillo, Zona El Pary",
        "DESCRIPCION": "Kiosco de Autoservicio"
    },
    {
        "ID": 9487,
        "NOMBRE": "Kiosko de Autoservicio Ag. Grigota II",
        "TIPO": "T",
        "SUB_TIPO": "K",
        "LATITUD": "-17.799263969258554",
        "LONGITUD": "-63.193328606883746",
        "HORARIO": "N",
        "TELEFONO": "3173000",
        "DIRECCION": "Av. Grigotá N° 163, entre 2do y 3er Anillo, Zona El Pary",
        "DESCRIPCION": "Kiosko de Autoservicio"
    },
    {
        "ID": 5,
        "NOMBRE": "AGENCIA GRIGOTÁ",
        "TIPO": "A",
        "SUB_TIPO": "B",
        "LATITUD": "-17.7994500000",
        "LONGITUD": "-63.1938222222",
        "HORARIO": "N",
        "TELEFONO": "(591-3) 317-3000",
        "DIRECCION": "Av. Grigotá N°163, entre 2do y 3er Anillo, Zona El Pari.",
        "DESCRIPCION": "Santa Cruz"
    },
    {
        "ID": 8641,
        "NOMBRE": "ATM: 360 Av. Villarroel",
        "TIPO": "T",
        "SUB_TIPO": "T",
        "LATITUD": "-17.369432900000000",
        "LONGITUD": "-66.158634200000000",
        "HORARIO": "S",
        "TELEFONO": "800103999",
        "DIRECCION": "Av. Gualberto Villarroel N° 2030, casi ciclovía acera este.",
        "DESCRIPCION": "Cajero Automático"
    },
    {
        "ID": 111,
        "NOMBRE": "ATM: 281 Calle 16 de Obrajes",
        "TIPO": "T",
        "SUB_TIPO": "T",
        "LATITUD": "-16.529609800000000",
        "LONGITUD": "-68.102124899999990",
        "HORARIO": "S",
        "TELEFONO": "800-103999",
        "DIRECCION": "Av. Hernando Siles N° 6204 Esq Calle 16 de Obrajes.",
        "DESCRIPCION": "Cajero Automático"
    },
    {
        "ID": 8918,
        "NOMBRE": "ATM: 725 Héroes del Pacífico",
        "TIPO": "T",
        "SUB_TIPO": "E",
        "LATITUD": "-16.494683000000000",
        "LONGITUD": "-68.121911500000000",
        "HORARIO": "S",
        "TELEFONO": "800103999",
        "DIRECCION": "Av. Héroes del Pacifico, entre Av. Estados Unidos y Av. Busch, Zona Miraflores.",
        "DESCRIPCION": "Cajero Automático"
    },
    {
        "ID": 116,
        "NOMBRE": "ATM: 286 Illampu",
        "TIPO": "T",
        "SUB_TIPO": "T",
        "LATITUD": "-16.494970057171184",
        "LONGITUD": "-68.140434781292630",
        "HORARIO": "S",
        "TELEFONO": "800-103999",
        "DIRECCION": "Av. Illampu N° 670, Zona el Rosario.",
        "DESCRIPCION": "Cajero Automático"
    },
    {
        "ID": 8878,
        "NOMBRE": "ATM: 363 Av. Ingavi",
        "TIPO": "T",
        "SUB_TIPO": "T",
        "LATITUD": "-17.401850100000000",
        "LONGITUD": "-66.182590500000000",
        "HORARIO": "S",
        "TELEFONO": "800103999",
        "DIRECCION": "Av. Ingavi N° 2470, entre la Av. Melchor Perez Olguin y Calle De Los Arces,  diagonal al Surtidor Cochabamba",
        "DESCRIPCION": "Cajero Automático"
    },
    {
        "ID": 63,
        "NOMBRE": "ATM: 255 Av. Irala",
        "TIPO": "T",
        "SUB_TIPO": "T",
        "LATITUD": "-17.792059039709162",
        "LONGITUD": "-63.180103069676306",
        "HORARIO": "S",
        "TELEFONO": "800-103999",
        "DIRECCION": "Av. Irala N° 470 casi esquina Rene Moreno, al lado de la Clínica Angel Foianini, sobre el 1er anillo",
        "DESCRIPCION": "Cajero Automático"
    },
    {
        "ID": 9493,
        "NOMBRE": "Kiosko de Autoservicio Mapaiso Sur",
        "TIPO": "T",
        "SUB_TIPO": "K",
        "LATITUD": "-17.79318885848211",
        "LONGITUD": "-63.18510831048899",
        "HORARIO": "N",
        "TELEFONO": "3173000",
        "DIRECCION": "Av. Irala N°711",
        "DESCRIPCION": "Kiosco de Autoservicio"
    },
    {
        "ID": 6133,
        "NOMBRE": "ATM: 224 El Reloj",
        "TIPO": "T",
        "SUB_TIPO": "E",
        "LATITUD": "-19.03920134878457",
        "LONGITUD": "-65.2537026854959",
        "HORARIO": "S",
        "TELEFONO": "800103999",
        "DIRECCION": "Av. Jaime Mendoza N° 1597, Zona el Reloj.",
        "DESCRIPCION": "Cajero Automático"
    },
    {
        "ID": 8632,
        "NOMBRE": "ATM: 568 Hospital Japonés",
        "TIPO": "T",
        "SUB_TIPO": "T",
        "LATITUD": "-17.773262000000000",
        "LONGITUD": "-63.153934400000000",
        "HORARIO": "S",
        "TELEFONO": "800103999",
        "DIRECCION": "Av. Japón N° 3565, 3er Anillo Externo, entre Av. Paragua y Av. Guapay",
        "DESCRIPCION": "Cajero Automático"
    },
    {
        "ID": 2239,
        "NOMBRE": "ATM: 319 Hipermaxi El Prado Cbba.",
        "TIPO": "T",
        "SUB_TIPO": "T",
        "LATITUD": "-17.3841739576",
        "LONGITUD": "-66.1588958272",
        "HORARIO": "S",
        "TELEFONO": "800-103999",
        "DIRECCION": "Av. José Ballivián N° 753, Supermercado Hipermaxi El Prado.",
        "DESCRIPCION": "Cajero Automático"
    },
    {
        "ID": 6226,
        "NOMBRE": "ATM: 513 Polanco",
        "TIPO": "T",
        "SUB_TIPO": "E",
        "LATITUD": "-17.801662288579227",
        "LONGITUD": "-63.161639776750405",
        "HORARIO": "S",
        "TELEFONO": "800103999",
        "DIRECCION": "Av. Juan Pablo II N°3300, 3er. Anillo Interno, Barrio Polanco, entre Radial 10 y Av. San Aurelio.",
        "DESCRIPCION": "Cajero Automático"
    },
    {
        "ID": 8197,
        "NOMBRE": "ATM: 741 Multicine El Alto",
        "TIPO": "T",
        "SUB_TIPO": "E",
        "LATITUD": "-16.491519700000000",
        "LONGITUD": "-68.203955100000000",
        "HORARIO": "N",
        "TELEFONO": "800103999",
        "DIRECCION": "Av. Juan Pablo II, Zona Rio Seco, Multicine, El Alto",
        "DESCRIPCION": "Cajero Automático"
    },
    {
        "ID": 156,
        "NOMBRE": "ATM: 311 Surtidor El Cristo Cbba - Depositario",
        "TIPO": "T",
        "SUB_TIPO": "E",
        "LATITUD": "-17.378672222222200",
        "LONGITUD": "-66.165611111111100",
        "HORARIO": "S",
        "TELEFONO": "800-103999",
        "DIRECCION": "Av. Juan de la Rosa No. 0536 frente a la plazuela las Palmas, rotonda del Surtidor El Cristo en Cochabamba",
        "DESCRIPCION": "Cajero Automático"
    },
    {
        "ID": 8638,
        "NOMBRE": "ATM: 565 La Campana",
        "TIPO": "T",
        "SUB_TIPO": "T",
        "LATITUD": "-17.818967800000000",
        "LONGITUD": "-63.118626400000000",
        "HORARIO": "S",
        "TELEFONO": "800103999",
        "DIRECCION": "Av. La Campana, Esq. Av. 10 de Octubre",
        "DESCRIPCION": "Cajero Automático"
    },
    {
        "ID": 9574,
        "NOMBRE": "Kiosko de Autoservicio Ag. Fatima",
        "TIPO": "T",
        "SUB_TIPO": "K",
        "LATITUD": "-21.536898486491392",
        "LONGITUD": "-64.72622770438595",
        "HORARIO": "N",
        "TELEFONO": "3173000",
        "DIRECCION": "Av. La Paz N° 495 entre Av. José Manuel Belgrano y Delfin Pino",
        "DESCRIPCION": "Kiosko de Autoservicio"
    },
    {
        "ID": 8327,
        "NOMBRE": "ATM: 231 Agencia Fátima",
        "TIPO": "T",
        "SUB_TIPO": "E",
        "LATITUD": "-21.538173337526300",
        "LONGITUD": "-64.724149412449170",
        "HORARIO": "S",
        "TELEFONO": "800103999",
        "DIRECCION": "Av. La Paz N° 495, entre Av. Jose Manuel Belgrano y Delfín Pino",
        "DESCRIPCION": "Cajero Automático"
    },
    {
        "ID": 143,
        "NOMBRE": "AGENCIA FÁTIMA",
        "TIPO": "A",
        "SUB_TIPO": "A",
        "LATITUD": "-21.538161544632640",
        "LONGITUD": "-64.724134660299570",
        "HORARIO": "N",
        "TELEFONO": "(591-4) 665-4000",
        "DIRECCION": "Av. La Paz Nº495 entre Av. José Manuel Belgrano y Delfin Pino (Ba. Villa Fátima).",
        "DESCRIPCION": "Tarija"
    },
    {
        "ID": 5614,
        "NOMBRE": "ATM: 703 Plaza El Cóndor",
        "TIPO": "T",
        "SUB_TIPO": "T",
        "LATITUD": "-16.509025712827280",
        "LONGITUD": "-68.135399334873750",
        "HORARIO": "S",
        "TELEFONO": "800103999",
        "DIRECCION": "Av. Landaeta N° 793, Plaza El Cóndor, Zona San Pedro Alto.",
        "DESCRIPCION": "Cajero Automático"
    },
    {
        "ID": 41,
        "NOMBRE": "ATM: 158 Country Club Las Palmas",
        "TIPO": "T",
        "SUB_TIPO": "T",
        "LATITUD": "-17.8031527778",
        "LONGITUD": "-63.2067638889",
        "HORARIO": "S",
        "TELEFONO": "800-103999",
        "DIRECCION": "Av. Las Palmas, Country Club Las Palmas",
        "DESCRIPCION": "Cajero Automático"
    },
    {
        "ID": 6284,
        "NOMBRE": "ATM: 236 SENAC",
        "TIPO": "T",
        "SUB_TIPO": "T",
        "LATITUD": "-21.539605453040462",
        "LONGITUD": "-64.745592016394040",
        "HORARIO": "S",
        "TELEFONO": "800103999",
        "DIRECCION": "Av. Los Ceibos, Esq. Av. Julio Arce, Zona Senac.",
        "DESCRIPCION": "Cajero Automático"
    },
    {
        "ID": 6280,
        "NOMBRE": "ATM: 237 JUAN XXIII",
        "TIPO": "T",
        "SUB_TIPO": "E",
        "LATITUD": "-21.540313390176266",
        "LONGITUD": "-64.713469128207010",
        "HORARIO": "S",
        "TELEFONO": "800103999",
        "DIRECCION": "Av. M. Font, entre Av. Defensores del Chaco y Calle Porvenir.",
        "DESCRIPCION": "Cajero Automático"
    },
    {
        "ID": 5656,
        "NOMBRE": "ATM: 710 COTEL",
        "TIPO": "T",
        "SUB_TIPO": "T",
        "LATITUD": "-16.497377714214280",
        "LONGITUD": "-68.136417292126000",
        "HORARIO": "S",
        "TELEFONO": "800109999",
        "DIRECCION": "Av. Mariscal Santa Cruz Nº 980, Edificio Cotel, entre calles Cochabamba y Sagarnaga.",
        "DESCRIPCION": "Cajero Automático"
    },
    {
        "ID": 6374,
        "NOMBRE": "ATM: 352 Tadeo Haenke",
        "TIPO": "T",
        "SUB_TIPO": "T",
        "LATITUD": "-17.381464385940312",
        "LONGITUD": "-66.176214548202320",
        "HORARIO": "S",
        "TELEFONO": "800103999",
        "DIRECCION": "Av. Melchor Perez N° 1250, Esq. Tadeo Haenke, Zona Sarco.",
        "DESCRIPCION": "Cajero Automático"
    },
    {
        "ID": 23,
        "NOMBRE": "ATM: 155 Agencia El Cristo II",
        "TIPO": "T",
        "SUB_TIPO": "T",
        "LATITUD": "-17.7716194444",
        "LONGITUD": "-63.1826611111",
        "HORARIO": "S",
        "TELEFONO": "800-103999",
        "DIRECCION": "Av. Monseñor Rivero Esquina Fortín Arce (Agencia El Cristo)",
        "DESCRIPCION": "Cajero Automático"
    },
    {
        "ID": 9524,
        "NOMBRE": "Kiosko de Autoservicio  Ag. El Cristo",
        "TIPO": "T",
        "SUB_TIPO": "K",
        "LATITUD": "-17.771618953414738",
        "LONGITUD": "-63.18283807486294",
        "HORARIO": "N",
        "TELEFONO": "3 173000",
        "DIRECCION": "Av. Monseñor Rivero esq. Fortín Arce",
        "DESCRIPCION": "Kiosco de Autoservicio"
    },
    {
        "ID": 9475,
        "NOMBRE": "Kiosko de Autoservicio Ag. El Cristo II",
        "TIPO": "T",
        "SUB_TIPO": "K",
        "LATITUD": "-17.771618953414738",
        "LONGITUD": "-63.18283807486294",
        "HORARIO": "N",
        "TELEFONO": "3173000",
        "DIRECCION": "Av. Monseñor Rivero esq. Fortín Arce",
        "DESCRIPCION": "Kiosko de Autoservicio"
    },
    {
        "ID": 3,
        "NOMBRE": "AGENCIA EL CRISTO",
        "TIPO": "A",
        "SUB_TIPO": "B",
        "LATITUD": "-17.771655849678815",
        "LONGITUD": "-63.182735455850270",
        "HORARIO": "N",
        "TELEFONO": "(591-3) 317-3000",
        "DIRECCION": "Av. Monseñor Rivero esq. Fortín Arce.",
        "DESCRIPCION": "Santa Cruz"
    },
    {
        "ID": 8828,
        "NOMBRE": "ATM: 150 Agencia El Cristo I",
        "TIPO": "T",
        "SUB_TIPO": "T",
        "LATITUD": "-17.767182944900103",
        "LONGITUD": "-63.15654605253942",
        "HORARIO": "S",
        "TELEFONO": "800103999",
        "DIRECCION": "Av. Monseñor Rivero, Esq. Calle Fortín Arce, Agencia El Cristo",
        "DESCRIPCION": "Cajero Automático"
    },
    {
        "ID": 8830,
        "NOMBRE": "ATM: 155 Ag El Cristo II",
        "TIPO": "T",
        "SUB_TIPO": "T",
        "LATITUD": "-17.771836700000000",
        "LONGITUD": "-63.182620200000000",
        "HORARIO": "S",
        "TELEFONO": "800103999",
        "DIRECCION": "Av. Monseñor Rivero, Esq. Calle Fortín Arce, Agencia El Cristo",
        "DESCRIPCION": "Cajero Automático"
    },
    {
        "ID": 7849,
        "NOMBRE": "ATM: 172 Depositario Ag. San Miguel",
        "TIPO": "T",
        "SUB_TIPO": "E",
        "LATITUD": "-16.540911730639290",
        "LONGITUD": "-68.080428391374200",
        "HORARIO": "S",
        "TELEFONO": "800103999",
        "DIRECCION": "Av. Montenegro N° 1223 Esquina Calle 18 Calacoto, Zona San Miguel.",
        "DESCRIPCION": "Cajero Automático"
    },
    {
        "ID": 9440,
        "NOMBRE": "Kiosco de Autoservicio Ag. San Miguel",
        "TIPO": "T",
        "SUB_TIPO": "K",
        "LATITUD": "-16.5408659778916",
        "LONGITUD": "-68.0804121080537",
        "HORARIO": "N",
        "TELEFONO": "3 173000",
        "DIRECCION": "Av. Montenegro N° 1223 esq. Calle 18 Calacoto ",
        "DESCRIPCION": "Kiosco de Autoservicio"
    },
    {
        "ID": 101,
        "NOMBRE": "AGENCIA SAN MIGUEL",
        "TIPO": "A",
        "SUB_TIPO": "A",
        "LATITUD": "-16.540834665215854",
        "LONGITUD": "-68.080431266035720",
        "HORARIO": "N",
        "TELEFONO": "(591-2) 217-3000",
        "DIRECCION": "Av. Montenegro N°1223 esq. Calle 18 Calacoto, Zona San Miguel.",
        "DESCRIPCION": "La Paz"
    },
    {
        "ID": 8636,
        "NOMBRE": "ATM: 566 Moscú 4to. Anillo",
        "TIPO": "T",
        "SUB_TIPO": "T",
        "LATITUD": "-17.825282900000000",
        "LONGITUD": "-63.201567600000000",
        "HORARIO": "S",
        "TELEFONO": "800103999",
        "DIRECCION": "Av. Moscú 4to. y 5to. Anillo, entre Calles 6 de Agosto y Pasillo Litoral.",
        "DESCRIPCION": "Cajero Automático"
    },
    {
        "ID": 7695,
        "NOMBRE": "ATM: 493 Moscu 5to Anillo",
        "TIPO": "T",
        "SUB_TIPO": "E",
        "LATITUD": "-17.828182130967747",
        "LONGITUD": "-63.203132053524200",
        "HORARIO": "S",
        "TELEFONO": "80010399",
        "DIRECCION": "Av. Moscú N° 5058 y 5to. Anillo, Zona La Cuchilla, Frente al Surtidor Moragrande.",
        "DESCRIPCION": "Cajero Automático"
    },
    {
        "ID": 8038,
        "NOMBRE": "ATM: 532 Hipermaxi Cambódromo",
        "TIPO": "T",
        "SUB_TIPO": "T",
        "LATITUD": "-17.742679400000000",
        "LONGITUD": "-63.144526799999990",
        "HORARIO": "S",
        "TELEFONO": "800103999",
        "DIRECCION": "Av. Mutualista, Esq. 6to. Anillo, Zona Cambódromo",
        "DESCRIPCION": "Cajero Automático"
    },
    {
        "ID": 5625,
        "NOMBRE": "ATM: 707 Cota Cota",
        "TIPO": "T",
        "SUB_TIPO": "T",
        "LATITUD": "-16.540794481039672",
        "LONGITUD": "-68.062959648360330",
        "HORARIO": "S",
        "TELEFONO": "800103999",
        "DIRECCION": "Av. Muñoz Reyes N° 22, entre Calles La Merced y 24 de Septiembre, Zona Cota Cota.",
        "DESCRIPCION": "Cajero Automático"
    },
    {
        "ID": 8945,
        "NOMBRE": "ATM: 225 Embol Sucre",
        "TIPO": "T",
        "SUB_TIPO": "T",
        "LATITUD": "-19.557653000000000",
        "LONGITUD": "-65.736482999999990",
        "HORARIO": "S",
        "TELEFONO": "800103999",
        "DIRECCION": "Av. Navarra, Zona ex Aeropuerto, Instalaciones de EMBOL Sucre",
        "DESCRIPCION": "Cajero Automático"
    },
    {
        "ID": 6743,
        "NOMBRE": "ATM: 523 Clínica Martin Dockweiler",
        "TIPO": "T",
        "SUB_TIPO": "T",
        "LATITUD": "-17.766968200000000",
        "LONGITUD": "-63.198925100000000",
        "HORARIO": "S",
        "TELEFONO": "800103999",
        "DIRECCION": "Av. Noel Kempff Mercado N° 705, 3er Anillo Interno, interior de la Clínica.",
        "DESCRIPCION": "Cajero Automático"
    },
    {
        "ID": 8562,
        "NOMBRE": "ATM: 558 Paseo Boulevard",
        "TIPO": "T",
        "SUB_TIPO": "T",
        "LATITUD": "-17.760762200000000",
        "LONGITUD": "-63.187919200000000",
        "HORARIO": "S",
        "TELEFONO": "800103999",
        "DIRECCION": "Av. Noel Kempff Mercado, Esq. Radial 26, 3er. Anillo Interno, Paseo Blvd.",
        "DESCRIPCION": "Cajero Automático"
    },
    {
        "ID": 8544,
        "NOMBRE": "ATM: 553 Saguapac El Palmar",
        "TIPO": "T",
        "SUB_TIPO": "T",
        "LATITUD": "-17.861212800000000",
        "LONGITUD": "-63.173220200000000",
        "HORARIO": "S",
        "TELEFONO": "800103999",
        "DIRECCION": "Av. Nuevo Palmar, Saguapac S.R.L.",
        "DESCRIPCION": "Cajero Automático"
    },
    {
        "ID": 5904,
        "NOMBRE": "ATM: 342 Loreto",
        "TIPO": "T",
        "SUB_TIPO": "E",
        "LATITUD": "-17.4213412404479",
        "LONGITUD": "-66.1580394149551",
        "HORARIO": "S",
        "TELEFONO": "800103999",
        "DIRECCION": "Av. Panamericana, Iglesia Maria Auxiliadora, Villa Loreto.",
        "DESCRIPCION": "Cajero Automático"
    },
    {
        "ID": 6378,
        "NOMBRE": "ATM: 350 Panamericana",
        "TIPO": "T",
        "SUB_TIPO": "E",
        "LATITUD": "-17.43324889316304",
        "LONGITUD": "-66.16101117078212",
        "HORARIO": "S",
        "TELEFONO": "800103999",
        "DIRECCION": "Av. Panamericana, s/n, Zona Lacma.",
        "DESCRIPCION": "Cajero Automático"
    },
    {
        "ID": 124,
        "NOMBRE": "AGENCIA POMPEYA",
        "TIPO": "A",
        "SUB_TIPO": "A",
        "LATITUD": "-14.840930153817661",
        "LONGITUD": "-64.904118780175850",
        "HORARIO": "N",
        "TELEFONO": "(591-3) 46-23777",
        "DIRECCION": "Av. Pedro Ignacio Muiba esq. Calle Tarope, Zona Pompeya.",
        "DESCRIPCION": "Beni"
    },
    {
        "ID": 9448,
        "NOMBRE": "Kiosko de Autoservicio Ag. Pompeya",
        "TIPO": "T",
        "SUB_TIPO": "S",
        "LATITUD": "-14.8409503756957",
        "LONGITUD": "-64.9043504914077",
        "HORARIO": "N",
        "TELEFONO": "3173000",
        "DIRECCION": "Av. Pedro Ignacio Muiba, esq. Calle Tarope, Zona Pompeya",
        "DESCRIPCION": "Kiosko de Autoservicio"
    },
    {
        "ID": 6035,
        "NOMBRE": "ATM: 904 Ag. Pompeya",
        "TIPO": "T",
        "SUB_TIPO": "E",
        "LATITUD": "-14.840930153817661",
        "LONGITUD": "-64.904118780175850",
        "HORARIO": "S",
        "TELEFONO": "800103999",
        "DIRECCION": "Av. Pedro Ignacio Muiba, esq. Calle Tarope, Zona Pompeya.",
        "DESCRIPCION": "Cajero Automático"
    },
    {
        "ID": 8290,
        "NOMBRE": "Oficina Externa Loreto",
        "TIPO": "A",
        "SUB_TIPO": "D",
        "LATITUD": "-15.194788800000000",
        "LONGITUD": "-64.759213500000000",
        "HORARIO": null,
        "TELEFONO": "800103999",
        "DIRECCION": "Av. Pedro Marbán, Municipio de Loreto.",
        "DESCRIPCION": "Oficina Externa "
    },
    {
        "ID": 3191,
        "NOMBRE": "ATM: 420 Universidad Ucebol",
        "TIPO": "T",
        "SUB_TIPO": "T",
        "LATITUD": "-17.730971994644193",
        "LONGITUD": "-63.169391500518124",
        "HORARIO": "S",
        "TELEFONO": "800-103999",
        "DIRECCION": "Av. Perimetral entre 6to, Anillo y Calle Las Palmas, Km, 5 1/2, Carretera al Norte.",
        "DESCRIPCION": "Cajero Automático"
    },
    {
        "ID": 6177,
        "NOMBRE": "ATM: 726 Teleférico Estación Central",
        "TIPO": "T",
        "SUB_TIPO": "E",
        "LATITUD": "-16.491319570301012",
        "LONGITUD": "-68.14462540437927",
        "HORARIO": "N",
        "TELEFONO": "800103999",
        "DIRECCION": "Av. Perú, Estación Central, Teleferico Rojo.",
        "DESCRIPCION": "Cajero Automático"
    },
    {
        "ID": 8371,
        "NOMBRE": "ATM: 742 Terminal de Buses  LP",
        "TIPO": "T",
        "SUB_TIPO": "T",
        "LATITUD": "-16.488688100000000",
        "LONGITUD": "-68.141655599999990",
        "HORARIO": "N",
        "TELEFONO": "800103999",
        "DIRECCION": "Av. Perú, Instalaciones de la Terminal de Buses La Paz",
        "DESCRIPCION": "Cajero Automático"
    },
    {
        "ID": 7698,
        "NOMBRE": "ATM: 496 Mercado Abasto",
        "TIPO": "T",
        "SUB_TIPO": "E",
        "LATITUD": "-17.793717940964700",
        "LONGITUD": "-63.203468191117140",
        "HORARIO": "S",
        "TELEFONO": "80010399",
        "DIRECCION": "Av. Piraí N° 527 casi 3er. Anillo, Zona Mercado Abasto.",
        "DESCRIPCION": "Cajero Automático"
    },
    {
        "ID": 8556,
        "NOMBRE": "ATM: 556 Supermarket Piraí",
        "TIPO": "T",
        "SUB_TIPO": "T",
        "LATITUD": "-17.813189400000000",
        "LONGITUD": "-63.230942799999990",
        "HORARIO": "S",
        "TELEFONO": "800103999",
        "DIRECCION": "Av. Piraí, 6to. Anillo,  Supermarket Mercagusto",
        "DESCRIPCION": "Cajero Automático"
    },
    {
        "ID": 4311,
        "NOMBRE": "ATM: 447 Auto Atm Av. Pirai",
        "TIPO": "T",
        "SUB_TIPO": "L",
        "LATITUD": "-17.792451018493114",
        "LONGITUD": "-63.199242043049594",
        "HORARIO": "S",
        "TELEFONO": "800103999",
        "DIRECCION": "Av. Piraí, Nº 350, esquina Calle Chituri, entre 2do y 3er anillo.",
        "DESCRIPCION": "Cajero Automático"
    },
    {
        "ID": 8109,
        "NOMBRE": "ATM: 443 Av. Pirai",
        "TIPO": "T",
        "SUB_TIPO": "T",
        "LATITUD": "-17.792322262722910",
        "LONGITUD": "-63.199242363229370",
        "HORARIO": "S",
        "TELEFONO": "800103999",
        "DIRECCION": "Av. Piraí, Nº 350, esquina Calle Chituri, entre 2do y 3er anillo.",
        "DESCRIPCION": "Cajero Automático"
    },
    {
        "ID": 8558,
        "NOMBRE": "ATM: 557 Abasto Av. Piraí",
        "TIPO": "T",
        "SUB_TIPO": "T",
        "LATITUD": "-17.795443700000000",
        "LONGITUD": "-63.208099300000010",
        "HORARIO": "S",
        "TELEFONO": "800103999",
        "DIRECCION": "Av. Piraí, entre el 3er. y 4to. Anillo, casi Esq. Calle Rafael Aponte,  ",
        "DESCRIPCION": "Cajero Automático"
    },
    {
        "ID": 17,
        "NOMBRE": "AGENCIA LA BÉLGICA",
        "TIPO": "A",
        "SUB_TIPO": "A",
        "LATITUD": "-17.5649388889",
        "LONGITUD": "-63.2252416667",
        "HORARIO": "N",
        "TELEFONO": "(591-3) 317-3000",
        "DIRECCION": "Av. Principal La Bélgica, al lado de la Policía, Morotoco Chaco Colpa Arriba, Municipio Colpa Bélgica.",
        "DESCRIPCION": "Santa Cruz"
    },
    {
        "ID": 3849,
        "NOMBRE": "ATM: 419 Surtidor Rivero Plan 3000",
        "TIPO": "T",
        "SUB_TIPO": "T",
        "LATITUD": "-17.825728804245300",
        "LONGITUD": "-63.134176294167794",
        "HORARIO": "S",
        "TELEFONO": "800103999",
        "DIRECCION": "Av. Principal Plan 3 Mil, Esq. Calle 9, Barrio 18 de Marzo.",
        "DESCRIPCION": "Cajero Automático"
    },
    {
        "ID": 8452,
        "NOMBRE": "ATM: 546 Satélite Norte II",
        "TIPO": "T",
        "SUB_TIPO": "E",
        "LATITUD": "-17.607325300000000",
        "LONGITUD": "-63.155302999999990",
        "HORARIO": "S",
        "TELEFONO": "800103999",
        "DIRECCION": "Av. Principal Satélite Norte, entre Calles Cupesí y Jorori, UV. ST1, Mz-15, lote 27.",
        "DESCRIPCION": "Cajero Automático"
    },
    {
        "ID": 8113,
        "NOMBRE": "ATM: 263 Agencia La Belgica",
        "TIPO": "T",
        "SUB_TIPO": "T",
        "LATITUD": "-17.564849400000000",
        "LONGITUD": "-63.225148900000010",
        "HORARIO": "S",
        "TELEFONO": "800103999",
        "DIRECCION": "Av. Principal de La Bélgica, al lado de la Policia, Morotoco Chaco, colpa arriba o La Bélgica, Municipio Colpa Bélgica, 3ra sección de la Provincia Sara.",
        "DESCRIPCION": "Cajero Automático"
    },
    {
        "ID": 6370,
        "NOMBRE": "ATM: 735 Pérez Velasco",
        "TIPO": "T",
        "SUB_TIPO": "E",
        "LATITUD": "-16.49357903334221",
        "LONGITUD": "-68.13734339388758",
        "HORARIO": "S",
        "TELEFONO": "800103999",
        "DIRECCION": "Av. Pérez Velasco casi esq. Calle Serrano.",
        "DESCRIPCION": "Cajero Automático"
    },
    {
        "ID": 8063,
        "NOMBRE": "ATM: 537 Farmacorp Radial 10",
        "TIPO": "T",
        "SUB_TIPO": "E",
        "LATITUD": "-17.812299100000000",
        "LONGITUD": "-63.136355099999990",
        "HORARIO": "S",
        "TELEFONO": "800103999",
        "DIRECCION": "Av. Radial 10 esquina 6to anillo, instalaciones de Farmacorp.",
        "DESCRIPCION": "Cajero Automático"
    },
    {
        "ID": 8871,
        "NOMBRE": "ATM: 279 La Barranca",
        "TIPO": "T",
        "SUB_TIPO": "T",
        "LATITUD": "-16.499099000000000",
        "LONGITUD": "-68.142800000001000",
        "HORARIO": "S",
        "TELEFONO": "800103999",
        "DIRECCION": "Av. Radial 12, esq. 3er Anillo Interno, Zona La Barranca.",
        "DESCRIPCION": "Cajero Automático"
    },
    {
        "ID": 5813,
        "NOMBRE": "ATM: 333 Reducto",
        "TIPO": "T",
        "SUB_TIPO": "E",
        "LATITUD": "-17.3913277000",
        "LONGITUD": "-66.2385946000",
        "HORARIO": "S",
        "TELEFONO": "800103999",
        "DIRECCION": "Av. Reducto, esq. Av. Blanco Galindo, Colcapirhua, Quillacollo, Acera Sureste. ",
        "DESCRIPCION": "Cajero Automático"
    },
    {
        "ID": 9477,
        "NOMBRE": "Kiosko de Autoservicio Ag. Roca y Coronado II",
        "TIPO": "T",
        "SUB_TIPO": "K",
        "LATITUD": "-17.784447689646836",
        "LONGITUD": "-63.19517238175298",
        "HORARIO": "N",
        "TELEFONO": "3173000",
        "DIRECCION": "Av. Roca y Coronado N° 9, 2do Anillo, Zona Oeste",
        "DESCRIPCION": "Kiosko de Autoservicio"
    },
    {
        "ID": 9501,
        "NOMBRE": "Kiosko de Autoservicio Ag. Roca y Coronado",
        "TIPO": "T",
        "SUB_TIPO": "K",
        "LATITUD": "-17.784447689646836",
        "LONGITUD": "-63.19517238175298",
        "HORARIO": "N",
        "TELEFONO": "3 173000",
        "DIRECCION": "Av. Roca y Coronado N° 9, 2do Anillo, Zona Oeste",
        "DESCRIPCION": "Kiosco de Autoservicio"
    },
    {
        "ID": 4,
        "NOMBRE": "AGENCIA ROCA Y CORONADO",
        "TIPO": "A",
        "SUB_TIPO": "B",
        "LATITUD": "-17.78459436572118",
        "LONGITUD": "-63.195451399085606",
        "HORARIO": "N",
        "TELEFONO": "(591-3) 317-3000",
        "DIRECCION": "Av. Roca y Coronado Nº9, 2do Anillo.",
        "DESCRIPCION": "Santa Cruz"
    },
    {
        "ID": 8678,
        "NOMBRE": "ATM: 262 Hipermaxi Roca y Coronado",
        "TIPO": "T",
        "SUB_TIPO": "T",
        "LATITUD": "-17.785366666666700",
        "LONGITUD": "-63.212022222222200",
        "HORARIO": "S",
        "TELEFONO": "800103999",
        "DIRECCION": "Av. Roca y Coronado, Esq. Calle Francisco Bernachi, entre 3er y 4to Anillo, Supermercado Hipermaxi",
        "DESCRIPCION": "Cajero Automático"
    },
    {
        "ID": 6222,
        "NOMBRE": "ATM: 511 Alto San Pedro",
        "TIPO": "T",
        "SUB_TIPO": "E",
        "LATITUD": "-17.811514888947467",
        "LONGITUD": "-63.189395444176620",
        "HORARIO": "S",
        "TELEFONO": "800103999",
        "DIRECCION": "Av. Roque Aguilera, diagonal al mercado Alto San Pedro, Capilla San Pedro Apóstol",
        "DESCRIPCION": "Cajero Automático"
    },
    {
        "ID": 6236,
        "NOMBRE": "ATM: 518 Saguapac",
        "TIPO": "T",
        "SUB_TIPO": "T",
        "LATITUD": "-17.801955153083718",
        "LONGITUD": "-63.185881511243146",
        "HORARIO": "N",
        "TELEFONO": "800103999",
        "DIRECCION": "Av. Río Grande Nº 2323, Instalaciones de SAGUAPAC.",
        "DESCRIPCION": "Cajero Automático"
    },
    {
        "ID": 5959,
        "NOMBRE": "ATM: 713 Saavedra",
        "TIPO": "T",
        "SUB_TIPO": "T",
        "LATITUD": "-16.506148710841302",
        "LONGITUD": "-68.12013848863172",
        "HORARIO": "S",
        "TELEFONO": "800103999",
        "DIRECCION": "Av. Saavedra y Claudio Sanjinez, frente a la Parroquia Virgen de Remedios.",
        "DESCRIPCION": "Cajero Automático"
    },
    {
        "ID": 29,
        "NOMBRE": "ATM: 253 Hamburguesas TOBY",
        "TIPO": "T",
        "SUB_TIPO": "T",
        "LATITUD": "-17.799106127969885",
        "LONGITUD": "-63.169082915375824",
        "HORARIO": "S",
        "TELEFONO": "800-103999",
        "DIRECCION": "Av. San Aurelio, Esq. Av. El Trompillo, 2do. Anillo",
        "DESCRIPCION": "Cajero Automático"
    },
    {
        "ID": 9503,
        "NOMBRE": "Kiosko de Autoservicio Ag. Equipetrol",
        "TIPO": "T",
        "SUB_TIPO": "K",
        "LATITUD": "-17.76727554858122",
        "LONGITUD": "-63.193864082225055",
        "HORARIO": "N",
        "TELEFONO": "3 173000",
        "DIRECCION": "Av. San Martin Calle 5 Oeste",
        "DESCRIPCION": "Kiosco de Autoservicio"
    },
    {
        "ID": 4405,
        "NOMBRE": "Kiosco Smart Sala de Autoservicios San Martin",
        "TIPO": "T",
        "SUB_TIPO": "K",
        "LATITUD": "-17.760359432985254",
        "LONGITUD": "-63.198842393906375",
        "HORARIO": "S",
        "TELEFONO": "800103999",
        "DIRECCION": "Av. San Martin, esquina Calle Los Lirios, Zona Sirari.",
        "DESCRIPCION": "Maquina dispensadora de Tarjeta de Débito"
    },
    {
        "ID": 4598,
        "NOMBRE": "ATM: 451 San Martin I",
        "TIPO": "T",
        "SUB_TIPO": "E",
        "LATITUD": "-17.760390085503160",
        "LONGITUD": "-63.198858487160464",
        "HORARIO": "S",
        "TELEFONO": "800103999",
        "DIRECCION": "Av. San Martin, esquina Calle Los Lirios, Zona Sirari.",
        "DESCRIPCION": "Cajero Automático"
    },
    {
        "ID": 4599,
        "NOMBRE": "ATM: 452 San Martin II",
        "TIPO": "T",
        "SUB_TIPO": "E",
        "LATITUD": "-17.760397748631820",
        "LONGITUD": "-63.198837029488345",
        "HORARIO": "S",
        "TELEFONO": "800103999",
        "DIRECCION": "Av. San Martin, esquina Calle Los Lirios, Zona Sirari.",
        "DESCRIPCION": "Cajero Automático"
    },
    {
        "ID": 4600,
        "NOMBRE": "ATM: 450 Auto San Martin III",
        "TIPO": "T",
        "SUB_TIPO": "L",
        "LATITUD": "-17.760565060192288",
        "LONGITUD": "-63.198845076115390",
        "HORARIO": "S",
        "TELEFONO": "800103999",
        "DIRECCION": "Av. San Martin, esquina Calle Los Lirios, Zona Sirari.",
        "DESCRIPCION": "Cajero Automático"
    },
    {
        "ID": 5910,
        "NOMBRE": "ATM: 335 Santa Cruz",
        "TIPO": "T",
        "SUB_TIPO": "T",
        "LATITUD": "-17.375176708529658",
        "LONGITUD": "-66.15682260241833",
        "HORARIO": "S",
        "TELEFONO": "800103999",
        "DIRECCION": "Av. Santa Cruz N° 1390, esquina Av. Portales. ",
        "DESCRIPCION": "Cajero Automático"
    },
    {
        "ID": 5578,
        "NOMBRE": "ATM: 473 Cotoca",
        "TIPO": "T",
        "SUB_TIPO": "E",
        "LATITUD": "-17.754943851503054",
        "LONGITUD": "-62.996547132531130",
        "HORARIO": "S",
        "TELEFONO": "800103999",
        "DIRECCION": "Av. Santa Cruz N° 61 entre Defensores del Acre y Av. Bolivar, frente a la Catedral del Municipio de Cotoca.",
        "DESCRIPCION": "Cajero Automático"
    },
    {
        "ID": 6207,
        "NOMBRE": "ATM: 516 Agencia Minero I",
        "TIPO": "T",
        "SUB_TIPO": "T",
        "LATITUD": "-17.123761581050587",
        "LONGITUD": "-63.231086111392200",
        "HORARIO": "S",
        "TELEFONO": "800103999",
        "DIRECCION": "Av. Santa Cruz entre Calles Avaroa y Murillo.",
        "DESCRIPCION": "Cajero Automático"
    },
    {
        "ID": 6209,
        "NOMBRE": "ATM: 517 Agencia Minero II",
        "TIPO": "T",
        "SUB_TIPO": "T",
        "LATITUD": "-17.123761581050587",
        "LONGITUD": "-63.231064653720080",
        "HORARIO": "S",
        "TELEFONO": "800103999",
        "DIRECCION": "Av. Santa Cruz entre Calles Avaroa y Murillo.",
        "DESCRIPCION": "Cajero Automático"
    },
    {
        "ID": 32,
        "NOMBRE": "ATM: 146 Hipermaxi Sur Santos D.",
        "TIPO": "T",
        "SUB_TIPO": "T",
        "LATITUD": "-17.8133777778",
        "LONGITUD": "-63.1842416667",
        "HORARIO": "S",
        "TELEFONO": "800-103999",
        "DIRECCION": "Av. Santos Doumont, 3er Anillo.",
        "DESCRIPCION": "Cajero Automático"
    },
    {
        "ID": 65,
        "NOMBRE": "ATM: 258 Av. Santos Dumont",
        "TIPO": "T",
        "SUB_TIPO": "E",
        "LATITUD": "-17.8159916667",
        "LONGITUD": "-63.1829944444",
        "HORARIO": "S",
        "TELEFONO": "800-103999",
        "DIRECCION": "Av. Santos Dumont N? 1200 Esq. Calle Augusto Zambrano, entre 3er y 4to Anillo.",
        "DESCRIPCION": "Santa Cruz"
    },
    {
        "ID": 8806,
        "NOMBRE": "ATM: 258 Ag. Santos Dumont I",
        "TIPO": "T",
        "SUB_TIPO": "T",
        "LATITUD": "-17.767184300000000",
        "LONGITUD": "-63.156567499999990",
        "HORARIO": "S",
        "TELEFONO": "800103999",
        "DIRECCION": "Av. Santos Dumont N° 1200 Esq. Calle Augusto Zambrano, entre 3er y 4to Anillo.",
        "DESCRIPCION": "Cajero Automático"
    },
    {
        "ID": 9491,
        "NOMBRE": "Kiosko de Autoservicio Ag. Santos Dumont",
        "TIPO": "T",
        "SUB_TIPO": "K",
        "LATITUD": "-17.816012188525654",
        "LONGITUD": "-63.1828274749521",
        "HORARIO": "N",
        "TELEFONO": "3173000",
        "DIRECCION": "Av. Santos Dumont N° 1200 esq. Calle Augusto Zambrano, entre 3er y 4to Anillo",
        "DESCRIPCION": "Kiosko de Autoservicio"
    },
    {
        "ID": 9497,
        "NOMBRE": "Kiosko de Autoservicio Ag. Santos Dumont II",
        "TIPO": "T",
        "SUB_TIPO": "K",
        "LATITUD": "-17.816012188525654",
        "LONGITUD": "-63.1828274749521",
        "HORARIO": "N",
        "TELEFONO": "3173000",
        "DIRECCION": "Av. Santos Dumont N° 1200 esq. Calle Augusto Zambrano, entre 3er y 4to Anillo",
        "DESCRIPCION": "Kiosko de Autoservicio"
    },
    {
        "ID": 6,
        "NOMBRE": "AGENCIA SANTOS DUMONT",
        "TIPO": "A",
        "SUB_TIPO": "B",
        "LATITUD": "-17.816002885727258",
        "LONGITUD": "-63.18303532953247",
        "HORARIO": "N",
        "TELEFONO": "(591-3) 317-3000",
        "DIRECCION": "Av. Santos Dumont N°1200 esq. Calle Augusto Zambrano, entre 3er y 4to Anillo.",
        "DESCRIPCION": "Santa Cruz"
    },
    {
        "ID": 8866,
        "NOMBRE": "ATM: 146 Hipermaxi Sur Santos Dumont",
        "TIPO": "T",
        "SUB_TIPO": "T",
        "LATITUD": "-17.813289600000000",
        "LONGITUD": "-63.184242400000000",
        "HORARIO": "S",
        "TELEFONO": "800103999",
        "DIRECCION": "Av. Santos Dumont, entre Av. Roque Aguilera y Av. Mario R. Gutierrez, 3er Anillo, Supermercado Hipermaxi ",
        "DESCRIPCION": "Cajero Automático"
    },
    {
        "ID": 8861,
        "NOMBRE": "ATM: 146 Hipermaxi Sur Santos Dumont",
        "TIPO": "T",
        "SUB_TIPO": "T",
        "LATITUD": "-17.813289600000000",
        "LONGITUD": "-63.184242400000000",
        "HORARIO": "S",
        "TELEFONO": "800103999",
        "DIRECCION": "Av. Santos Dumont, entre Av. Roque Aguilera y Av. Mario R. Gutierrez, 3er Anillo, Supermercado Hipermaxi ",
        "DESCRIPCION": "Cajero Automático"
    },
    {
        "ID": 8630,
        "NOMBRE": "ATM: 569 Santos Dumont 5to Anillo",
        "TIPO": "T",
        "SUB_TIPO": "T",
        "LATITUD": "-17.832557500000000",
        "LONGITUD": "-63.184799100000010",
        "HORARIO": "S",
        "TELEFONO": "800103999",
        "DIRECCION": "Av. Santos Dumont, rotonda 5to. Anillo",
        "DESCRIPCION": "Cajero Automático"
    },
    {
        "ID": 7692,
        "NOMBRE": "ATM: 492 Satelite ",
        "TIPO": "T",
        "SUB_TIPO": "E",
        "LATITUD": "-17.604282494257650",
        "LONGITUD": "-63.138826844286200",
        "HORARIO": "S",
        "TELEFONO": "80010399",
        "DIRECCION": "Av. Satélite Norte N° 101, esquina Calle 30.",
        "DESCRIPCION": "Cajero Automático"
    },
    {
        "ID": 5953,
        "NOMBRE": "ATM: 723 Cruce Viacha",
        "TIPO": "T",
        "SUB_TIPO": "E",
        "LATITUD": "-16.516707361052912",
        "LONGITUD": "-68.16509669552683",
        "HORARIO": "S",
        "TELEFONO": "800103999",
        "DIRECCION": "Av. Satélite y Av. Franco Valle, El Alto.",
        "DESCRIPCION": "Cajero Automático"
    },
    {
        "ID": 6228,
        "NOMBRE": "ATM: 510 Metal Mec",
        "TIPO": "T",
        "SUB_TIPO": "T",
        "LATITUD": "-17.734767400678287",
        "LONGITUD": "-63.159985459127280",
        "HORARIO": "S",
        "TELEFONO": "800103999",
        "DIRECCION": "Av. Sexto Anillo N°18, Esq. Av. Beni, Barrio Metal-Mec,",
        "DESCRIPCION": "Cajero Automático"
    },
    {
        "ID": 7219,
        "NOMBRE": "ATM: 531 Clínica Las Américas",
        "TIPO": "T",
        "SUB_TIPO": "T",
        "LATITUD": "-17.735156600000000",
        "LONGITUD": "-63.162355200000000",
        "HORARIO": "S",
        "TELEFONO": "800103999",
        "DIRECCION": "Av. Sexto Anillo, Esq. Av. Beni.",
        "DESCRIPCION": "Cajero Automático"
    },
    {
        "ID": 6060,
        "NOMBRE": "ATM: 905 Av. Bolivar",
        "TIPO": "T",
        "SUB_TIPO": "T",
        "LATITUD": "-14.830523744424433",
        "LONGITUD": "-64.89542957127227",
        "HORARIO": "S",
        "TELEFONO": "800103999",
        "DIRECCION": "Av. Simón Bolivar, casi esq. Alberto Reyes Davi, Zona el Carmen.",
        "DESCRIPCION": "Cajero Automático"
    },
    {
        "ID": 4457,
        "NOMBRE": "ATM: 320 Simón López",
        "TIPO": "T",
        "SUB_TIPO": "T",
        "LATITUD": "-17.361178787232948",
        "LONGITUD": "-66.182020492222200",
        "HORARIO": "S",
        "TELEFONO": "800103999",
        "DIRECCION": "Av. Simón López N° 1594, Esq. Av. Sumaj Llajta.               ",
        "DESCRIPCION": "Cochabamba"
    },
    {
        "ID": 5922,
        "NOMBRE": "ATM: 341 Suecia",
        "TIPO": "T",
        "SUB_TIPO": "T",
        "LATITUD": "-17.419270980987616",
        "LONGITUD": "-66.1471700472908",
        "HORARIO": "S",
        "TELEFONO": "800103999",
        "DIRECCION": "Av. Suecia N° 1047, frente al Hospital Harry William.",
        "DESCRIPCION": "Cajero Automático"
    },
    {
        "ID": 6214,
        "NOMBRE": "ATM: 515 Agencia Pando I",
        "TIPO": "T",
        "SUB_TIPO": "E",
        "LATITUD": "-11.018675401331757",
        "LONGITUD": "-68.753320403273850",
        "HORARIO": "S",
        "TELEFONO": "800103999",
        "DIRECCION": "Av. Tcnl. Enrique Fernandez Cornejo N° 096.",
        "DESCRIPCION": "Cajero Automático"
    },
    {
        "ID": 9572,
        "NOMBRE": "Kiosko de Autoservicio Ag. Pando",
        "TIPO": "T",
        "SUB_TIPO": "K",
        "LATITUD": "-11.0185905841996",
        "LONGITUD": "-68.7535778491509",
        "HORARIO": "N",
        "TELEFONO": "3173000",
        "DIRECCION": "Av. Tcnl. Enrique Fernández Cornejo N° 096",
        "DESCRIPCION": "Kiosko de Autoservicio"
    },
    {
        "ID": 133,
        "NOMBRE": "AGENCIA PANDO",
        "TIPO": "A",
        "SUB_TIPO": "A",
        "LATITUD": "-11.018679562382543",
        "LONGITUD": "-68.75330555398465",
        "HORARIO": "N",
        "TELEFONO": "(591-3) 8420182 ",
        "DIRECCION": "Av. Tcnl. Enrique Fernández Cornejo N°096, Cobija.",
        "DESCRIPCION": "Pando"
    },
    {
        "ID": 33,
        "NOMBRE": "ATM: 141 Hipermaxi 3 Pasos al Frente",
        "TIPO": "T",
        "SUB_TIPO": "T",
        "LATITUD": "-17.795254433595403",
        "LONGITUD": "-63.161054029621280",
        "HORARIO": "S",
        "TELEFONO": "800-103999",
        "DIRECCION": "Av. Tres Pasos al Frente, Esq. Calle Pedro Marban, 3er Anillo.",
        "DESCRIPCION": "Cajero Automático"
    },
    {
        "ID": 4697,
        "NOMBRE": "ATM: 453 Depositario UNAGRO",
        "TIPO": "T",
        "SUB_TIPO": "E",
        "LATITUD": "-17.112584610381770",
        "LONGITUD": "-63.245075274694976",
        "HORARIO": "S",
        "TELEFONO": "800103999",
        "DIRECCION": "Av. Unagro Final, S/N., Zona del Ingenio UNAGRO, Carretera Mineros.",
        "DESCRIPCION": "Cajero Automático"
    },
    {
        "ID": 8719,
        "NOMBRE": "ATM: 251 Macro Fidalga",
        "TIPO": "T",
        "SUB_TIPO": "T",
        "LATITUD": "-17.776919600000000",
        "LONGITUD": "-63.173164800000000",
        "HORARIO": "S",
        "TELEFONO": "800103999",
        "DIRECCION": "Av. Uruguay N° 733,  1er. Anillo del Avión Pirata, Zona El Paraiso, Parqueo del Supermercado Macro Fidalga ",
        "DESCRIPCION": "Cajero Automático"
    },
    {
        "ID": 4403,
        "NOMBRE": "Kiosco Smart Ag. Blacutt",
        "TIPO": "T",
        "SUB_TIPO": "K",
        "LATITUD": "-17.794868285561574",
        "LONGITUD": "-63.180823313744330",
        "HORARIO": "S",
        "TELEFONO": "800103999",
        "DIRECCION": "Av. Velarde Esq. Andrés Manso Nº 200 (Exterior de nuestra Agencia Blacutt).",
        "DESCRIPCION": "Maquina dispensadora de Tarjeta de Débito"
    },
    {
        "ID": 9528,
        "NOMBRE": "Kiosko de Autoservicio  Ag. Blacutt II",
        "TIPO": "T",
        "SUB_TIPO": "K",
        "LATITUD": "-17.794937200892605",
        "LONGITUD": "-63.18076128514669",
        "HORARIO": "N",
        "TELEFONO": "3 173000",
        "DIRECCION": "Av. Velarde esq. Andrés Manso N° 200, Plaza Blacutt",
        "DESCRIPCION": "Kiosco de Autoservicio"
    },
    {
        "ID": 9514,
        "NOMBRE": "Kiosko de Autoservicio  Ag. Blacutt",
        "TIPO": "T",
        "SUB_TIPO": "K",
        "LATITUD": "-17.794905121026282",
        "LONGITUD": "-63.180681281175644",
        "HORARIO": "N",
        "TELEFONO": "3 173000",
        "DIRECCION": "Av. Velarde esq. Andrés Manso N° 200, Plaza Blacutt",
        "DESCRIPCION": "Kiosco de Autoservicio"
    },
    {
        "ID": 7,
        "NOMBRE": "AGENCIA BLACUTT",
        "TIPO": "A",
        "SUB_TIPO": "B",
        "LATITUD": "-17.794951819662653",
        "LONGITUD": "-63.180782457456864",
        "HORARIO": "N",
        "TELEFONO": "(591-3) 317-3000",
        "DIRECCION": "Av. Velarde esq. Andrés Manso Nº200, Plaza Blacutt.",
        "DESCRIPCION": "Santa Cruz"
    },
    {
        "ID": 5932,
        "NOMBRE": "ATM: 718 Cotahuma",
        "TIPO": "T",
        "SUB_TIPO": "E",
        "LATITUD": "-16.515426966478884",
        "LONGITUD": "-68.14008029720242",
        "HORARIO": "S",
        "TELEFONO": "800103999",
        "DIRECCION": "Av. Victor Agustín Ugarte esq. Av. Jaime Zudañez.",
        "DESCRIPCION": "Cajero Automático"
    },
    {
        "ID": 8576,
        "NOMBRE": "ATM: 560 Montero Nor Oeste",
        "TIPO": "T",
        "SUB_TIPO": "T",
        "LATITUD": "-17.324594900000000",
        "LONGITUD": "-63.266073100000000",
        "HORARIO": "S",
        "TELEFONO": "800103999",
        "DIRECCION": "Av. Victor Paz Estensoro N° 785, Dist 2, UV 34, Mza 2, Lote 16, Montero",
        "DESCRIPCION": "Cajero Automático"
    },
    {
        "ID": 6124,
        "NOMBRE": "ATM: 508 Ag. Viedma I",
        "TIPO": "T",
        "SUB_TIPO": "J",
        "LATITUD": "-17.789350779402103",
        "LONGITUD": "-63.171725779337564",
        "HORARIO": "S",
        "TELEFONO": "800103999",
        "DIRECCION": "Av. Viedma Esquina Av. Saavedra Nº 780",
        "DESCRIPCION": "Cajero Automático"
    },
    {
        "ID": 9520,
        "NOMBRE": "Kiosko de Autoservicio  Ag. Viedma",
        "TIPO": "T",
        "SUB_TIPO": "K",
        "LATITUD": "-17.788966892745158",
        "LONGITUD": "-63.1706326804254",
        "HORARIO": "N",
        "TELEFONO": "3 173000",
        "DIRECCION": "Av. Viedma esq. Calle Saavedra N° 780",
        "DESCRIPCION": "Kiosco de Autoservicio"
    },
    {
        "ID": 8,
        "NOMBRE": "AGENCIA VIEDMA",
        "TIPO": "A",
        "SUB_TIPO": "A",
        "LATITUD": "-17.789104704459510",
        "LONGITUD": "-63.171580553054085",
        "HORARIO": "N",
        "TELEFONO": "(591-3) 317-3000",
        "DIRECCION": "Av. Viedma esq. Calle Saavedra Nº780.",
        "DESCRIPCION": "Santa Cruz"
    },
    {
        "ID": 8061,
        "NOMBRE": "ATM: 217 Embol Oruro",
        "TIPO": "T",
        "SUB_TIPO": "T",
        "LATITUD": "-17.961205400000000",
        "LONGITUD": "-67.104333400000000",
        "HORARIO": "S",
        "TELEFONO": "800103999",
        "DIRECCION": "Av. Villarroel entre calles Backovic y Brasil, frente a la Ex terminal.",
        "DESCRIPCION": "Cajero Automático"
    },
    {
        "ID": 5607,
        "NOMBRE": "ATM: 330 Quintanilla",
        "TIPO": "T",
        "SUB_TIPO": "E",
        "LATITUD": "-17.383444350758775",
        "LONGITUD": "-66.110647058324200",
        "HORARIO": "S",
        "TELEFONO": "800103999",
        "DIRECCION": "Av. Villazón N° 4415, Zona Quintanilla, Municipio de Sacaba.",
        "DESCRIPCION": "Cajero Automático"
    },
    {
        "ID": 9,
        "NOMBRE": "AGENCIA VIRGEN DE COTOCA",
        "TIPO": "A",
        "SUB_TIPO": "A",
        "LATITUD": "-17.770633289559350",
        "LONGITUD": "-63.122816182591606",
        "HORARIO": "N",
        "TELEFONO": "(591-3) 317-3000",
        "DIRECCION": "Av. Virgen de Cotoca 6to. Anillo esq. Vía Ferrea, N°10, Zona Pampa de la Isla.",
        "DESCRIPCION": "Santa Cruz"
    },
    {
        "ID": 9505,
        "NOMBRE": "Kiosko de Autoservicio Mapaiso",
        "TIPO": "T",
        "SUB_TIPO": "K",
        "LATITUD": "-17.76735477534534",
        "LONGITUD": "-63.114508257147236",
        "HORARIO": "N",
        "TELEFONO": "3173000",
        "DIRECCION": "Av. Virgen de Cotoca esq. Av Montecristo",
        "DESCRIPCION": "Kiosko de Autoservicio"
    },
    {
        "ID": 1008,
        "NOMBRE": "ATM: 277 Surtidor Virgen de Cotoca ",
        "TIPO": "T",
        "SUB_TIPO": "T",
        "LATITUD": "-17.782305555555600",
        "LONGITUD": "-63.163383333333300",
        "HORARIO": "S",
        "TELEFONO": "800-103999",
        "DIRECCION": "Av. Virgen de Cotoca esq. Av. Perimetral a 1 cuadra del 2do. Anillo, Instalaciones de Farmacorp.",
        "DESCRIPCION": "Cajero Automático"
    },
    {
        "ID": 8740,
        "NOMBRE": "ATM: 247 Hipermaxi Pampa de la Isla",
        "TIPO": "T",
        "SUB_TIPO": "T",
        "LATITUD": "-17.771663900000000",
        "LONGITUD": "-63.124570100000010",
        "HORARIO": "S",
        "TELEFONO": "800103999",
        "DIRECCION": "Av. Virgen de Cotoca, 6to. Anillo, Supermercado Hipermaxi Pampa de la Isla",
        "DESCRIPCION": "Cajero Automático"
    },
    {
        "ID": 8542,
        "NOMBRE": "ATM: 550 Biopetrol Montecristo",
        "TIPO": "T",
        "SUB_TIPO": "T",
        "LATITUD": "-17.766719200000000",
        "LONGITUD": "-63.110031500000010",
        "HORARIO": "S",
        "TELEFONO": "800103999",
        "DIRECCION": "Av. Virgen de Cotoca, 8vo. Anillo, Surtidor Biopetrol",
        "DESCRIPCION": "Cajero Automático"
    },
    {
        "ID": 8552,
        "NOMBRE": "ATM: 552 Carlos Caballero",
        "TIPO": "T",
        "SUB_TIPO": "T",
        "LATITUD": "-17.774051700000000",
        "LONGITUD": "-63.130732599999990",
        "HORARIO": "S",
        "TELEFONO": "800103999",
        "DIRECCION": "Av. Virgen de Cotoca, Mz. 42, Metalúrgica Carlos Caballero S.A.",
        "DESCRIPCION": "Cajero Automático"
    },
    {
        "ID": 7764,
        "NOMBRE": "ATM: 479 Virgen de Cotoca 4to Anillo",
        "TIPO": "T",
        "SUB_TIPO": "T",
        "LATITUD": "-17.780310048533680",
        "LONGITUD": "-63.147030148974770",
        "HORARIO": "S",
        "TELEFONO": "800103999",
        "DIRECCION": "Av. Virgen de Cotoca, rotonda del 4to. Anillo.",
        "DESCRIPCION": "Cajero Automático"
    },
    {
        "ID": 7773,
        "NOMBRE": "ATM: 484 Virgen de Lujan",
        "TIPO": "T",
        "SUB_TIPO": "T",
        "LATITUD": "-17.745132633109566",
        "LONGITUD": "-63.118881137721054",
        "HORARIO": "S",
        "TELEFONO": "800103999",
        "DIRECCION": "Av. Virgen de Lujan N° 6710 entre 6to. y 7mo. Anillo.",
        "DESCRIPCION": "Cajero Automático"
    },